awards,name,station,genre,pr,dinner_budget,lunch_budget,rating,holiday,url,reserve_status,reserve_method,transportation,opening_time,extra_holiday_info,payment_methods,geo_coordinates,telephone,address,num_review,type,visited,latitude,longitude
The Tabelog Award 2024 Bronze 受賞店,とんかつ成蔵,南阿佐ケ谷駅 345m , とんかつ,目指したのは豚肉の魅力を極限まで引き出すこと。試行錯誤の末にたどり着いた白いとんかつ。,"￥5,000～￥5,999","￥5,000～￥5,999",4.27,月曜日、火曜日、金曜日,https://tabelog.com/tokyo/A1319/A131905/13236380/,完全予約制,予約はomakaseのサイトより,東京メトロ丸の内線南阿佐ヶ谷駅から６分JR中央線、総武線阿佐ヶ谷駅から12分 南阿佐ケ谷駅から345m,10:40 - 14:00L.O. 料理13:10,■ 営業時間11:00～14:00(最終入店13:30)17:30～20:00(最終入店19:30)■ 定休日不定休,カード可 電子マネー不可 QRコード決済不可,"35.69770483866489,139.6387445846403",03-6882-5214,東京都杉並区成田東4-33-9 ,1540,tonkatsu,True,35.69770483866489,139.6387445846403
食べログ とんかつ 百名店 2024 選出店,とん太,高田馬場駅 417m , とんかつ,,"￥2,000～￥2,999","￥2,000～￥2,999",3.95,月曜日、火曜日、木曜日、日曜日、祝日,https://tabelog.com/tokyo/A1305/A130503/13003984/,予約不可,,JR山手線・西武新宿線・東京メトロ東西線「高田馬場」駅から徒歩6分 高田馬場駅から417m,17:30 - 20:30,■ 営業時間水、金、土　17:30~20:3021:00時閉店よろしくお願い申し上げます,カード不可 電子マネー不可 QRコード決済不可,"35.71553233867518,139.70660148477288",03-3989-0296,東京都豊島区高田3-17-8 ,1666,tonkatsu,True,35.71553233867518,139.70660148477288
食べログ とんかつ 百名店 2024 選出店,Katsuプリポー,西武新宿駅 306m , とんかつ、かつ丼,PRETTYPORKFACTORY&KATSUプリポー原宿も営業してます,"￥6,000～￥7,999","￥6,000～￥7,999",3.94,,https://tabelog.com/tokyo/A1304/A130401/13264309/,予約可,かつ丼は原宿店のみの提供に変更になりましたKatsudon is now only available at the Harajuku store,JR新宿駅東口から徒歩3分東京メトロ新宿駅から徒歩3分 西武新宿駅から306m,12:00 - 15:00,■ 定休日年末年始,カード可 （VISA、Master、JCB、AMEX、Diners） 電子マネー可 （交通系電子マネー（Suicaなど）、楽天Edy、nanaco、WAON、iD、QUICPay） QRコード決済可 （PayPay、楽天ペイ）,"35.69474893868723,139.70300358456544",03-3209-2930,東京都新宿区歌舞伎町1-10-3 G3ビル 2F,791,tonkatsu,False,35.69474893868723,139.70300358456544
食べログ すき焼き・しゃぶしゃぶ 百名店 2024 選出店,PRETTY PORK FACTORY & KATSUプリポー,明治神宮前駅 107m , しゃぶしゃぶ、とんかつ、韓国料理,原宿でも最高な銘柄豚でしゃぶしゃぶ▪︎和風サムギョプサル▪︎とんかつが楽しめます,"￥8,000～￥9,999","￥8,000～￥9,999",3.92,,https://tabelog.com/tokyo/A1306/A130601/13295369/,予約可,,明治神宮駅 直通 明治神宮前駅から107m,,,カード可 （VISA、Master、JCB、AMEX） 電子マネー可 QRコード決済可,"35.668424947177506,139.70489861709638",03-6805-0290,東京都渋谷区神宮前6-31-21 東急プラザ原宿ハラカド 506,264,tonkatsu,False,35.668424947177506,139.70489861709638
食べログ とんかつ 百名店 2024 選出店,とんかつ けい太 西荻窪駅前店,西荻窪駅 40m , とんかつ,,"￥3,000～￥3,999","￥3,000～￥3,999",3.9,月曜日、木曜日、金曜日,https://tabelog.com/tokyo/A1319/A131907/13241723/,完全予約制,・お電話でのご予約は承っておりません。ネット予約をご利用ください・2023年6月から、原材料高騰の為、一部メニューの価格を改訂致します。ご迷惑をおかけ致しますが、何卒ご了承のほどよろしくお願い致します・希望日時、人数が確定してからのご連絡をお願いいたします。・駐車場なし。車でのご来店は渋滞の恐れがあるためお勧めしておりません。西荻窪駅南口徒歩10秒です。,【JR西荻窪駅　徒歩10秒】南口を出ていただき、右に進んでいただくと、牛丼チェーンの松屋さんがあります。その向かいのビル地下1階になります。※車は渋滞に巻き込まれる方が多いため、電車でのご来店をお勧めしております。予約時間に遅れた場合はお断りさせていただく場合がございます。 西荻窪駅から40m,11:00 - 15:00L.O. 14:00,■ 営業時間【注意事項】ランチ70分制、ディナー90分制、1名様は各時間帯60分制,カード可 電子マネー可 （交通系電子マネー（Suicaなど）） QRコード決済可,"35.703524838648825,139.59989708472636",050-1721-4377,東京都杉並区西荻南3-10-6 中村ビル B1F,885,tonkatsu,True,35.703524838648825,139.59989708472636
食べログ 洋食 百名店 2023 選出店,ぽん多本家,上野広小路駅 144m , 洋食、とんかつ,,"￥5,000～￥5,999","￥5,000～￥5,999",3.88,月曜日,https://tabelog.com/tokyo/A1311/A131101/13003587/,予約可,予約は2名以上,東京メトロ銀座線　上野広小路駅　徒歩1分JR山手線・京浜東北線　御徒町駅（南口） 徒歩2分都営地下鉄大江戸線　上野御徒町駅　徒歩3分東京メトロ日比谷線　仲御徒町駅　徒歩4分東京メトロ千代田線　湯島駅　徒歩5分 上野広小路駅から144m,,,カード可 （VISA、Master、JCB、AMEX、Diners） 電子マネー不可 QRコード決済不可,"35.70634213870216,139.77300328463346",03-3831-2351,東京都台東区上野3-23-3 ,1621,tonkatsu,False,35.70634213870216,139.77300328463346
食べログ とんかつ 百名店 2024 選出店,車力門 ちゃわんぶ,四谷三丁目駅 207m , とんかつ、カレー,,"￥4,000～￥4,999","￥4,000～￥4,999",3.87,水曜日,https://tabelog.com/tokyo/A1309/A130903/13234679/,予約可,,地下鉄丸の内線四谷三丁目駅から徒歩4分 四谷三丁目駅から207m,11:00 - 14:00,■ 営業時間20:00最終入店※20:00を過ぎてのご来店の場合、事前に献立を決めて頂き、到着時間をお伝えください■ 定休日水曜日（お盆・正月休み・臨時休業あり）,カード不可 電子マネー不可 QRコード決済不可,"35.688871138697216,139.72262568449233",03-6384-2544,東京都新宿区荒木町3-22 島ビル 1F,760,tonkatsu,True,35.688871138697216,139.72262568449233
食べログ とんかつ 百名店 2024 選出店,とんかつ七井戸,外苑前駅 396m , とんかつ,申し訳ございません。ラストオーダー13:30に変更となっております。,-,-,3.78,月曜日、土曜日、日曜日、祝日,https://tabelog.com/tokyo/A1306/A130603/13229075/,予約不可,,最寄駅東京メトロ外苑前駅徒歩5分東京メトロ表参道駅徒歩10分東京メトロ明治神宮前駅徒歩10分JR原宿駅徒歩15分 外苑前駅から396m,11:00 - 14:00L.O. 13:30,■ 営業時間臨時休業、臨時営業の場合にはInstagram、食べログにてお知らせいたします。現在、夜の営業はお休みしております。,カード可 （VISA、Master、AMEX） 電子マネー不可 QRコード決済可 （PayPay、d払い）,"35.67182393870523,139.7138057843263",080-8190-1331,東京都渋谷区神宮前3-42-11 ローザビアンカ 1F,529,tonkatsu,True,35.67182393870523,139.7138057843263
食べログ とんかつ 百名店 2024 選出店,丸五,秋葉原駅 354m , とんかつ,,"￥1,000～￥1,999","￥1,000～￥1,999",3.76,月曜日、火曜日,https://tabelog.com/tokyo/A1310/A131001/13000379/,予約不可,,JR総武線・山手線・京浜東北線「秋葉原駅」電気街口より、徒歩4分JR総武線・中央線「御茶ノ水駅」聖橋口より、徒歩10分都営地下鉄 新宿線「小川町駅」A3出口より、徒歩5分東京メトロ 丸ノ内線「淡路町駅」3出口より、徒歩5分東京メトロ 銀座線「末広町駅」3出口より、徒歩10分首都圏新都市鉄道 つくばエクスプレス「秋葉原駅」A2出口より、徒歩10分東京メトロ 日比谷線「秋葉原駅」2出口より、徒歩10分 秋葉原駅から354m,,,カード不可 電子マネー不可 QRコード決済不可,"35.699138338705694,139.76972718456298",03-3255-6595,東京都千代田区外神田1-8-14 ,2839,tonkatsu,False,35.699138338705694,139.76972718456298
食べログ とんかつ 百名店 2024 選出店,丸一,京急蒲田駅 333m , とんかつ,,"￥2,000～￥2,999","￥2,000～￥2,999",3.75,月曜日、日曜日、祝日,https://tabelog.com/tokyo/A1315/A131503/13017765/,予約不可,,京急本線【京急蒲田駅】徒歩５分ＪＲ京浜東北線【蒲田駅】徒歩６分東急池上線・多摩川線【蒲田駅】徒歩９分 京急蒲田駅から333m,,,カード不可 電子マネー不可 QRコード決済不可,"35.56153983877733,139.72024958320782",03-3739-0156,東京都大田区蒲田5-28-12 ,2117,tonkatsu,False,35.56153983877733,139.72024958320782
食べログ とんかつ 百名店 2024 選出店,あげづき,飯田橋駅 339m , とんかつ,神楽坂で究極のとんかつを味わう！◆,"￥1,000～￥1,999","￥1,000～￥1,999",3.75,火曜日,https://tabelog.com/tokyo/A1309/A130905/13107796/,予約可,原則的にお昼の御予約は受け付けておりません。ランチ時間帯はとてもお電話が繋がりにくくなっております。ご了承くださいませ。,東京メトロ有楽町線・南北線【飯田橋駅】Ｂ３出口　徒歩３分ＪＲ中央線【飯田橋駅】西口　徒歩４分東京メトロ東西線【飯田橋駅】徒歩８分都営地下鉄大江戸線【牛込神楽坂駅】徒歩５分 飯田橋駅から339m,11:30 - 15:00L.O. 14:30,■ 営業時間売り切れの際はご容赦ください。■ 定休日神楽坂店は毎週火曜日は定休日となります。日本橋店は元旦以外は無休。小さなお子様大歓迎,カード可 （VISA、Master、JCB、AMEX、Diners） 電子マネー不可 QRコード決済不可,"35.70132323869508,139.7407673846054",03-6265-0029,東京都新宿区神楽坂3-2 山ノ内ビル B1F,1881,tonkatsu,False,35.70132323869508,139.7407673846054
食べログ とんかつ 百名店 2024 選出店,とんかつ檍 銀座8丁目店,新橋駅 356m , とんかつ,,"￥2,000～￥2,999","￥2,000～￥2,999",3.75,月曜日、日曜日,https://tabelog.com/tokyo/A1301/A130101/13219635/,予約不可,,東京メトロ銀座線【新橋駅】徒歩３分ＪＲ山手線・京浜東北線【新橋駅】銀座口　徒歩６分東京メトロ銀座線・日比谷線【銀座駅】徒歩６分東京メトロ丸ノ内線【銀座駅】徒歩８分 新橋駅から356m,,,カード可 （VISA、Master、JCB、AMEX） 電子マネー不可 QRコード決済可 （d払い）,"35.668222138722705,139.7614814842565",03-3573-1600,東京都中央区銀座8-8-7 第3ソワレ・ドビル B1F,1411,tonkatsu,True,35.668222138722705,139.7614814842565
食べログ とんかつ 百名店 2024 選出店,とんかつ燕楽,池上駅 153m , とんかつ、かつ丼,,"￥2,000～￥2,999","￥2,000～￥2,999",3.75,月曜日、日曜日,https://tabelog.com/tokyo/A1317/A131714/13034183/,予約不可,,東急池上線　池上駅徒歩2分 池上駅から153m,11:00 - 14:30,■ 営業時間食材無くなり次第営業終了,カード不可 電子マネー不可 QRコード決済不可,"35.57293763876498,139.70418608333418",03-3754-8243,東京都大田区池上6-1-4 ,1147,tonkatsu,False,35.57293763876498,139.70418608333418
食べログ とんかつ 百名店 2024 選出店,とんかつひなた,高田馬場駅 338m , とんかつ,営業時間について,"￥2,000～￥2,999","￥2,000～￥2,999",3.73,日曜日,https://tabelog.com/tokyo/A1305/A130503/13204289/,予約可,予約は、17時以降のコースメニューのみとなります。なお、ご予約いただく際は14時以降がつながりやすくなってます。何卒よろしくお願い申し上げます。,東京メトロ東西線「高田馬場」駅7番出口より徒歩2分JR山手線、西武新宿線「高田馬場」駅 早稲田口より徒歩5分 高田馬場駅から338m,,,カード可 （VISA、Master、JCB、AMEX、Diners） 電子マネー可 （交通系電子マネー（Suicaなど）、iD、QUICPay）,"35.712968238677085,139.70748188474633",03-6380-2424,東京都新宿区高田馬場2-13-9 鈴木ビル1階,1974,tonkatsu,True,35.712968238677085,139.70748188474633
食べログ とんかつ 百名店 2024 選出店,はせ川,両国駅 109m , とんかつ,,"￥2,000～￥2,999","￥2,000～￥2,999",3.73,-,https://tabelog.com/tokyo/A1312/A131201/13019126/,予約可,予約について：ランチ不可・ディナーは当日満席になり次第予約不可●ネット予約が埋まってる場合でも、お電話でお問い合わせ頂ければお席のご用意が可能な日もございます。電話番号：03-5625-2929,JR総武線「両国」駅(東口)から徒歩2分都営大江戸線「両国」駅(A4出口)から徒歩６分横綱横丁沿いに立地 両国駅から109m,11:30 - 15:00L.O. 14:30,■ 定休日無休（年末年始休みあり）,カード可 （VISA、Master、JCB、AMEX） 電子マネー不可 QRコード決済可 （PayPay）,"35.69502773871602,139.79394188450448",03-5625-2929,東京都墨田区両国3-24-1 両国尾崎ビル　１０３,1829,tonkatsu,True,35.69502773871602,139.79394188450448
食べログ カレー TOKYO 百名店 2024 選出店,とんかつ檍のカレー屋 いっぺこっぺ 蒲田本店,蒲田駅 245m , カレー、とんかつ,,"￥1,000～￥1,999","￥1,000～￥1,999",3.73,水曜日,https://tabelog.com/tokyo/A1315/A131503/13178494/,予約不可,,ＪＲ京浜東北線「蒲田」駅東口より徒歩４分東急多摩川線・池上線「蒲田」駅より徒歩７分京急本線・空港線「京急蒲田」駅西口より徒歩10分蒲田駅から244m 蒲田駅から245m,,,カード不可 電子マネー不可 QRコード決済可 （PayPay）,"35.56045503877699,139.71701748319913",03-3733-0022,東京都大田区蒲田5-43-7 ,1638,tonkatsu,False,35.56045503877699,139.71701748319913
食べログ とんかつ 百名店 2024 選出店,とんかつ やまいち,淡路町駅 102m , とんかつ、かつ丼,,-,-,3.73,月曜日、日曜日,https://tabelog.com/tokyo/A1310/A131002/13042246/,予約不可,,東京メトロ丸ノ内線【淡路町駅】徒歩１分（Ａ１地上口）都営地下鉄新宿線【小川町駅】徒歩２分東京メトロ銀座線【神田駅】徒歩４分ＪＲ中央線・山手線・京浜東北線【神田駅】徒歩７分 淡路町駅から102m,,,カード不可 電子マネー不可 QRコード決済不可,"35.69536053870773,139.76857188452567",03-3253-3335,東京都千代田区神田須田町1-8-4 玉井ビル1F,1487,tonkatsu,False,35.69536053870773,139.76857188452567
食べログ とんかつ 百名店 2024 選出店,もち豚とんかつ たいよう,武蔵小山駅 257m , とんかつ,,"￥2,000～￥2,999","￥2,000～￥2,999",3.73,月曜日、金曜日,https://tabelog.com/tokyo/A1317/A131710/13059862/,予約可,ディナータイムは可能です。ランチタイムのご予約はできません。,東急目黒線「武蔵小山」駅から徒歩4分 武蔵小山駅から257m,11:30 - 14:00,■ 営業時間材料が無くなり次第終了■ 定休日月曜・金曜（※祝日でも定休) 8月9日(金)〜8月16日(金)まで夏季休暇とさせて頂きます。よろしくお願いします。,カード不可 電子マネー不可 QRコード決済不可,"35.61881623873655,139.70642018379604",03-3786-1464,東京都品川区小山3-22-7 メゾンいずみ　１－１１２,1143,tonkatsu,True,35.61881623873655,139.70642018379604
食べログ とんかつ 百名店 2024 選出店,銀座かつかみ,銀座駅 134m , とんかつ,,"￥8,000～￥9,999","￥8,000～￥9,999",3.73,-,https://tabelog.com/tokyo/A1301/A130101/13225476/,予約可,,銀座線 銀座駅より徒歩3分　京浜東北・根岸線 有楽町駅より徒歩8分 銀座駅から134m,,,カード可 電子マネー不可 QRコード決済可 （d払い）,"35.6707444387218,139.76365998428045",03-6263-8720,東京都中央区銀座5-6-10 銀座ミヤコビル 5F,819,tonkatsu,False,35.6707444387218,139.76365998428045
食べログ とんかつ 百名店 2024 選出店,とんかつ檍 蒲田本店,蒲田駅 247m , とんかつ,,"￥2,000～￥2,999","￥2,000～￥2,999",3.72,-,https://tabelog.com/tokyo/A1315/A131503/13114843/,予約不可,,ＪＲ京浜東北線「蒲田」駅東口より徒歩４分東急多摩川線・池上線「蒲田」駅より徒歩７分京急本線・空港線「京急蒲田」駅西口より徒歩10分 蒲田駅から247m,11:00 - 15:00,⬛︎定休日2024年6月1日より定休日無しに変更になりました。,カード不可 電子マネー不可 QRコード決済可 （PayPay）,"35.56044803877701,139.717062183199",03-3739-4231,東京都大田区蒲田5-43-7 ロイヤルハイツ蒲田１０２,2000,tonkatsu,False,35.56044803877701,139.717062183199
食べログ とんかつ 百名店 2024 選出店,とんかつ まさむね,溜池山王駅 140m , とんかつ、カレー,,"￥2,000～￥2,999","￥2,000～￥2,999",3.72,日曜日、祝日,https://tabelog.com/tokyo/A1308/A130802/13156833/,予約不可,,東京メトロ銀座線・南北線【溜池山王駅】徒歩３分東京メトロ千代田線【赤坂駅】徒歩５分東京メトロ丸ノ内線【国会議事堂前駅】徒歩５分 溜池山王駅から140m,,,カード不可 電子マネー不可 QRコード決済不可,"35.67206123871343,139.7400163843103",03-3505-3505,東京都港区赤坂2-8-19 ,1619,tonkatsu,False,35.67206123871343,139.7400163843103
食べログ とんかつ 百名店 2024 選出店,かつ好,人形町駅 114m , とんかつ,,"￥2,000～￥2,999","￥2,000～￥2,999",3.72,日曜日,https://tabelog.com/tokyo/A1302/A130204/13204633/,予約可,,東京メトロ日比谷線、都営地下鉄浅草線【人形町駅】徒歩２分東京メトロ半蔵門線【水天宮前駅】徒歩６分 人形町駅から114m,,,カード可 （JCB、AMEX、Diners） 電子マネー不可 QRコード決済不可,"35.686227638717554,139.78120488442454",03-6231-0641,東京都中央区日本橋人形町3-4-11 ,712,tonkatsu,True,35.686227638717554,139.78120488442454
,お食事 まるやま,大森駅 405m , とんかつ、食堂,,"￥1,000～￥1,999","￥1,000～￥1,999",3.72,日曜日,https://tabelog.com/tokyo/A1315/A131502/13116024/,予約不可,,JR大森駅徒歩3分 大森駅から405m,,,カード不可 電子マネー不可 QRコード決済不可,"35.58574183876403,139.72672758344774",不明の為情報お待ちしております,東京都大田区大森北1-34-14 ツインビルB館 1F,511,tonkatsu,False,35.58574183876403,139.72672758344774
食べログ とんかつ 百名店 2024 選出店,黒豚とんかつ ほり壱,新橋駅 258m , とんかつ,,"￥2,000～￥2,999","￥2,000～￥2,999",3.72,-,https://tabelog.com/tokyo/A1301/A130103/13258841/,予約可,2024年1月から昼の部も予約可。,JR 新橋駅から徒歩4分都営三田線 内幸町駅から徒歩6分 新橋駅から258m,,,カード可 （VISA、Master、JCB、AMEX、Diners） 電子マネー可 （交通系電子マネー（Suicaなど）、楽天Edy、nanaco、WAON、iD、QUICPay） QRコード決済可 （PayPay、d払い、楽天ペイ、au PAY）,"35.66541533872263,139.75566578423224",03-6435-7211,東京都港区新橋3-8-5 ル・グラシエルBLDG.13 B1F,254,tonkatsu,True,35.66541533872263,139.75566578423224
食べログ とんかつ 百名店 2024 選出店,あげ福,五反田駅 291m , とんかつ、カレー,,"￥3,000～￥3,999","￥3,000～￥3,999",3.71,-,https://tabelog.com/tokyo/A1316/A131603/13154272/,予約不可,,都営地下鉄浅草線【五反田駅】徒歩３分（Ａ２地上口利用）ＪＲ山手線【五反田駅】徒歩５分東急池上線【五反田駅】徒歩６分 五反田駅から291m,11:30 - 15:00L.O. 14:00,■ 臨時休業詳しくはホームページ、SNSをご確認ください。■ 定休日12/31、1/1、1/2■ お並びのお客様へ全員お揃いになられてから、お席へご案内させていただきます。,カード可 （VISA、Master、JCB、AMEX、Diners） 電子マネー可 （交通系電子マネー（Suicaなど）、楽天Edy、nanaco、WAON、iD、QUICPay） QRコード決済可 （PayPay）,"35.626051038736435,139.72049558385925",03-5719-4129,東京都品川区西五反田2-15-13 ニューハイツ西五反田 1F,1269,tonkatsu,False,35.626051038736435,139.72049558385925
食べログ とんかつ 百名店 2024 選出店,とんかつ 鉄,大森駅 371m , とんかつ,,"￥1,000～￥1,999","￥1,000～￥1,999",3.71,月曜日,https://tabelog.com/tokyo/A1315/A131502/13178524/,予約不可,,JR大森駅北口より徒歩約10分大森海岸駅から徒歩12～13分 大森駅から371m,,,カード不可,"35.59046043876272,139.73206678349166",03-6459-6416,東京都品川区南大井6-19-16 カテリーナ大森 B1F,974,tonkatsu,False,35.59046043876272,139.73206678349166
食べログ とんかつ 百名店 2024 選出店,すぎ田,蔵前駅 368m , とんかつ、洋食、日本料理,,"￥2,000～￥2,999","￥2,000～￥2,999",3.71,木曜日,https://tabelog.com/tokyo/A1311/A131103/13003707/,予約可,,都営大江戸線 蔵前駅 A5番出口 徒歩3分都営浅草線 蔵前駅 A4番出口 徒歩7分地下鉄銀座線 田原町駅 1番・2番出口 徒歩7分 蔵前駅から368m,,,カード可 （VISA、Master、JCB、AMEX、Diners） 電子マネー可 （交通系電子マネー（Suicaなど）、iD、QUICPay） QRコード決済可 （PayPay、au PAY）,"35.70644233870783,139.79101058462186",03-3844-5529,東京都台東区寿3-8-3 ,885,tonkatsu,False,35.70644233870783,139.79101058462186
食べログ 食堂 百名店 2024 選出店,とんかつ小田保 場内店,市場前駅 519m , 食堂、とんかつ、コロッケ,,"￥1,000～￥1,999","￥1,000～￥1,999",3.71,-,https://tabelog.com/tokyo/A1313/A131307/13026535/,,,市場前駅から519m,,,,"35.64378918261072,139.78061707407295",03-6633-0182,東京都江東区豊洲6-5-1 水産仲卸棟 3F ,493,tonkatsu,False,35.64378918261072,139.78061707407295
食べログ とんかつ 百名店 2024 選出店,ポンチ軒,小川町駅 222m , とんかつ、カレー、コロッケ,,"￥2,000～￥2,999","￥2,000～￥2,999",3.7,-,https://tabelog.com/tokyo/A1310/A131002/13141456/,予約可,夜のみ予約可,都営地下鉄新宿線【小川町駅】徒歩４分東京メトロ丸ノ内線【淡路町駅】徒歩６分東京メトロ千代田線【新御茶ノ水駅】徒歩６分ＪＲ中央線・総武線【御茶ノ水駅】徒歩７分 小川町駅から222m,,,カード可 （VISA、Master、JCB、AMEX、Diners） 電子マネー不可 QRコード決済可 （PayPay）,"35.69490663870656,139.76396688452428",03-3293-2110,東京都千代田区神田小川町2-8 扇ビル 1F,1686,tonkatsu,False,35.69490663870656,139.76396688452428
食べログ とんかつ 百名店 2024 選出店,とん八亭,上野御徒町駅 60m , とんかつ、食堂,,-,-,3.7,月曜日,https://tabelog.com/tokyo/A1311/A131101/13003593/,予約不可,,ＪＲ御徒町駅より徒歩２分銀座線上野広小路より徒歩２分大江戸線上野御徒町より徒歩２分日比谷線仲御徒町より徒歩４分千代田線湯島駅より徒歩５分 上野御徒町駅から60m,11:30 - 14:00,■ 営業時間売り切れ次第終了させて頂きます■ 定休日月曜日　祝日の場合翌日 他臨時休業あり,カード可 電子マネー可 QRコード決済可,"35.70841263870108,139.77373788465388",03-3831-4209,東京都台東区上野4-3-4 ,1067,tonkatsu,False,35.70841263870108,139.77373788465388
食べログ とんかつ 百名店 2024 選出店,tonkatsu.jp 表参道,表参道駅 243m , とんかつ、食堂、揚げ物,WEB予約の方法が変わりました。ホームページまたはInstagramからご予約いただけます,"￥2,000～￥2,999","￥2,000～￥2,999",3.7,月曜日、火曜日,https://tabelog.com/tokyo/A1306/A130602/13264557/,予約可,■予約方法オンライン予約はInstagrmの【席を予約する】もしくはGoogle をご利用ください。ランチタイムは予約不可。予約時間に遅れる場合は必ず店舗までお電話をお願いします。ご連絡がない場合はキャンセルとさせていただきます。（席のみ予約は1時間制）。,[電車でお越しの場合]東京メトロ表参道駅B2出口から徒歩3分[お車でお越しの場合]提携駐車場はございません。近くにコインパーキングがございますが台数は限られています。Aoビル、パラシオタワーや表参道ヒルズの駐車場のご利用をお勧めします。 表参道駅から243m,11:30 - 15:30L.O. 15:00,■予約方法オンライン予約はInstagrmの【席を予約する】もしくはGoogle をご利用ください。■【整理券システムについて】ウェイティングボードにお名前を記入され、ご注文内容受付したお客様に、QRコード付整理券をお渡ししています。QRコードを読んで頂くと呼び出し通知が届きます。■ 定休日定休日は毎週月曜日、火曜日（定休日が祝日の場合は営業、翌日お休み）、第一または、第二水曜日。11月は13日（水）がお休みとなります。,カード可 （VISA、Master、JCB、AMEX、Diners） 電子マネー可 （交通系電子マネー（Suicaなど）、iD、QUICPay） QRコード決済可 （PayPay、d払い、楽天ペイ、au PAY）,"35.664424438708735,139.7099908842542",03-6427-4910,東京都港区北青山3-9-9 FNビル 1F,600,tonkatsu,False,35.664424438708735,139.7099908842542
,とん平,鶯谷駅 201m , とんかつ,,"￥1,000～￥1,999","￥1,000～￥1,999",3.7,日曜日、祝日,https://tabelog.com/tokyo/A1311/A131104/13069370/,予約不可,,鶯谷駅南口歩1分 鶯谷駅から201m,11:30 - 14:00,■ 営業時間夜は18:00〜21:00ぐらいまで,カード不可 電子マネー不可 QRコード決済不可,"35.72126173869501,139.78030338477907",03-3873-5834,東京都台東区根岸1-2-20 ,152,tonkatsu,False,35.72126173869501,139.78030338477907
食べログ 食堂 百名店 2024 選出店,まるやま食堂,蒲田駅 188m , 食堂、とんかつ、カレー,,"￥1,000～￥1,999","￥1,000～￥1,999",3.69,日曜日,https://tabelog.com/tokyo/A1315/A131503/13119166/,予約不可,,蒲田駅から東口へ下りて外に出る。北(線路沿い大森方向)に徒歩約3分●JR京浜東北線中央改札出て左⇒東口の地上へ●東急(多摩川線・池上線)＋2分●京急線京急蒲田駅から西口に下りる。商店街経由で徒歩約12分●バス便＝1h2本運行　羽田空港～蒲田シャトルで蒲田駅終点約35分　東口0番乗降場から徒歩約3分 蒲田駅から188m,,,カード不可 電子マネー不可 QRコード決済不可,"35.56395494611907,139.7171301890327",非公開,東京都大田区蒲田5-2-7 渡辺ビル　1F,1247,tonkatsu,False,35.56395494611907,139.7171301890327
,かつ吉 新丸ビル店,大手町駅 268m , とんかつ、串揚げ、カレー,創業60年の伝統の味わいを新丸ビルでお楽しみ下さい！,"￥2,000～￥2,999","￥2,000～￥2,999",3.69,,https://tabelog.com/tokyo/A1302/A130201/13038494/,予約可,,JR線東京駅丸の内北口より徒歩1分東京メトロ丸の内線東京駅より徒歩1分都営地下鉄大手町駅より徒歩4分 大手町駅から268m,11:00 - 15:30L.O. 14:30,■ 営業時間営業時間が変わることもございます。ご了承下さい。■ 定休日不定休（新丸ビルに準ずる）,カード可 （VISA、Master、JCB、AMEX、Diners） 電子マネー可 （交通系電子マネー（Suicaなど）、iD、QUICPay） QRコード決済可 （PayPay、d払い、楽天ペイ、au PAY）,"35.68262093871441,139.7641258844001",050-3134-5268,東京都千代田区丸の内1-5-1 新丸の内ビルディング 5F,936,tonkatsu,False,35.68262093871441,139.7641258844001
食べログ とんかつ 百名店 2024 選出店,にし邑,東銀座駅 222m , とんかつ,,"￥1,000～￥1,999","￥1,000～￥1,999",3.68,土曜日、日曜日、祝日,https://tabelog.com/tokyo/A1301/A130101/13025298/,予約可,メールアドレス　ton_ginza2460@yahoo.co.jp,都営地下鉄浅草線【東銀座駅】徒歩２分東京メトロ日比谷線【東銀座駅】徒歩４分 東銀座駅から222m,,,カード不可 電子マネー不可 QRコード決済不可,"35.67066573872361,139.76920728427578",03-5565-2941,東京都中央区銀座3-12-6 盛重ビル 1F,1503,tonkatsu,True,35.67066573872361,139.76920728427578
食べログ とんかつ 百名店 2024 選出店,とんかつ かつ壱,目黒駅 124m , とんかつ、かつ丼、居酒屋,,"￥1,000～￥1,999","￥1,000～￥1,999",3.68,日曜日,https://tabelog.com/tokyo/A1316/A131601/13021829/,予約不可,,JR山手線「目黒」駅(西口)から徒歩1分 目黒駅から124m,11:00 - 13:50,■ 定休日月曜日が祝日の場合は月曜日も休日,カード不可 電子マネー不可 QRコード決済不可,"35.63458533872917,139.71467338394956",03-3779-3388,東京都品川区上大崎2-25-5 久米ビル　Ｂ１Ｆ,1209,tonkatsu,False,35.63458533872917,139.71467338394956
食べログ 洋食 百名店 2023 選出店,キッチン南海 神保町店,神保町駅 234m , 洋食、とんかつ、カレー,,～￥999,～￥999,3.68,日曜日、祝日,https://tabelog.com/tokyo/A1310/A131003/13249021/,予約不可,,都営地下鉄三田線【神保町駅】徒歩４分（Ａ９出口利用）都営地下鉄新宿線、東京メトロ半蔵門線【神保町駅】徒歩５分（Ａ７出口利用）ＪＲ中央線・総武線【御茶ノ水駅】御茶ノ水橋口　徒歩９分 神保町駅から234m,11:15 - 15:00,売り切れ次第終了,カード不可 電子マネー不可 QRコード決済不可,"35.69482763870555,139.7606583845258",03-3219-1616,東京都千代田区神田神保町1-39-8 ハウス神保町 1F,1044,tonkatsu,False,35.69482763870555,139.7606583845258
食べログ 食堂 百名店 2024 選出店,菱田屋,駒場東大前駅 210m , 食堂、海鮮、とんかつ,,"￥1,000～￥1,999","￥1,000～￥1,999",3.68,日曜日、祝日,https://tabelog.com/tokyo/A1318/A131801/13010480/,予約不可,,駒場東大前駅東口から徒歩３分。 駒場東大前駅から210m,,,カード可 （AMEX） 電子マネー可 （交通系電子マネー（Suicaなど）、iD、QUICPay） QRコード決済不可,"35.65762693870535,139.68585498420248",03-3466-8371,東京都目黒区駒場1-27-12 ,923,tonkatsu,False,35.65762693870535,139.68585498420248
食べログ とんかつ 百名店 2024 選出店,とんかつ ゆたか,浅草（つくばＥＸＰ）駅 287m , とんかつ、居酒屋、日本料理,,"￥2,000～￥2,999","￥2,000～￥2,999",3.68,水曜日、木曜日,https://tabelog.com/tokyo/A1311/A131102/13003669/,予約不可,,つくばエクスプレス 浅草駅 徒歩5分地下鉄銀座線 浅草駅 徒歩5分 浅草駅（つくばＥＸＰ）から287m,11:30 - 14:30L.O. 14:00,■ 定休日その他「公式ホームページ」をご覧ください。,カード不可 電子マネー不可 QRコード決済不可,"35.71176773870542,139.7940701846735",03-3841-7433,東京都台東区浅草1-15-9 ,750,tonkatsu,False,35.71176773870542,139.7940701846735
食べログ とんかつ 百名店 2024 選出店,とんかつ はせ川 東銀座店,築地駅 259m , とんかつ,,"￥3,000～￥3,999","￥3,000～￥3,999",3.68,-,https://tabelog.com/tokyo/A1313/A131301/13266947/,予約可,11:30-14:30 予約不可,・東京メトロ日比谷線「東銀座駅」5番出口か「築地駅」2番出口から徒歩3分・都営バス「築地」か「築地三丁目」停留所から徒歩1～2分 築地駅から259m,11:30 - 15:00L.O. 14:30,■ 定休日年末年始,カード可 （VISA、Master、JCB、AMEX、Diners） 電子マネー可 （交通系電子マネー（Suicaなど）、nanaco、WAON、iD、QUICPay） QRコード決済可,"35.66773353872567,139.76982038424572",03-6281-5129,東京都中央区築地1-13-11 高橋ビル 1F,464,tonkatsu,True,35.66773353872567,139.76982038424572
,とんかつ 王龍,白金高輪駅 594m , とんかつ、ハンバーグ、コロッケ,,"￥3,000～￥3,999","￥3,000～￥3,999",3.68,月曜日,https://tabelog.com/tokyo/A1316/A131602/13249768/,予約可,,都営地下鉄・東京メトロ　白金高輪駅　徒歩７分 白金高輪駅から594m,11:30 - 14:00,祝日は月曜日は休み、その他の曜日は営業します。,カード不可 電子マネー不可 QRコード決済不可,"35.6448543387269,139.7280612840439",03-3440-9529,東京都港区白金3-15-15 ,281,tonkatsu,False,35.6448543387269,139.7280612840439
,とんかつ 燕楽,千鳥町駅 310m , とんかつ、かつ丼、カレー,,"￥2,000～￥2,999","￥2,000～￥2,999",3.68,月曜日,https://tabelog.com/tokyo/A1317/A131714/13096288/,予約不可,平日の夜のみ可,東急池上線 千鳥町駅徒歩５分 千鳥町駅から310m,11:00 - 14:30L.O. 14:00,祝日の月曜日は営業、翌日火曜日が休み,カード不可 電子マネー不可 QRコード決済不可,"35.57237443876237,139.69485548333503",03-3755-5641,東京都大田区千鳥1-15-14 ,271,tonkatsu,False,35.57237443876237,139.69485548333503
食べログ とんかつ 百名店 2024 選出店,とんかつ檍 大門店,大門駅 245m , とんかつ、カレー,,-,-,3.67,月曜日、日曜日,https://tabelog.com/tokyo/A1314/A131401/13190933/,予約不可,,JR山手線、京浜東北線「浜松町」駅より徒歩７分都営浅草線、大江戸線「大門」駅より徒歩5分第一京浜「大門」交差点を新橋方向へ。信号のある一つ目の交差点を右へ。一つ目の十字路を過ぎてすぐに左側。 大門駅から245m,,,カード不可 電子マネー不可 QRコード決済不可,"35.658798138726866,139.75575878416532",03-5473-6403,東京都港区浜松町1-11-12 KMビル 1F,1669,tonkatsu,False,35.658798138726866,139.75575878416532
食べログ とんかつ 百名店 2024 選出店,とんかつ いわい,大門駅 180m , とんかつ、カレー,,"￥2,000～￥2,999","￥2,000～￥2,999",3.67,日曜日、祝日,https://tabelog.com/tokyo/A1314/A131401/13170377/,予約不可,予約の受付は現在、昼夜共に行っておりません。繁忙期は電話の対応できません。,・都営浅草線または都営大江戸線 「大門」駅（A6出口)から徒歩3分・JR山手線「浜松町」駅(北口)から徒歩7分・都営三田線「芝公園」駅(A3出口)から徒歩5分 大門駅から180m,11:30 - 14:30L.O. 13:45,■ 営業時間ご飯、豚汁がなくなり次第、営業終了する場合がございます。夜の営業はラストオーダー前でも30名様前後で営業終了させて頂きます。その他の休業は、とんかついわいのFacebookでご確認くださいませ。土曜日の夜の営業はカウンター5席の営業で17時半〜19時半です。■ 定休日年末年始,カード不可 電子マネー不可 QRコード決済不可,"35.65679283872716,139.75272568414718",03-6809-1529,東京都港区芝公園2-3-7 玉川ビル 2F,1565,tonkatsu,True,35.65679283872716,139.75272568414718
食べログ とんかつ 百名店 2024 選出店,とん久,高田馬場駅 127m , とんかつ,,"￥2,000～￥2,999","￥2,000～￥2,999",3.67,-,https://tabelog.com/tokyo/A1305/A130503/13000116/,予約不可,,JR山手線「高田馬場」駅(早稲田口)から徒歩2分F・Iビルの地下1階 高田馬場駅から127m,11:00 - 21:40,■ 定休日不定休,カード可 電子マネー可 QRコード決済不可,"35.71277215266878,139.7051534985467",03-3209-3900,東京都新宿区高田馬場1-26-5 Ｆ・Ｉビル B1F,1354,tonkatsu,False,35.71277215266878,139.7051534985467
食べログ とんかつ 百名店 2024 選出店,とんかつ目黒こがね,目黒駅 207m , とんかつ、食堂、弁当,話題沸騰 林SPF！【目黒駅東口徒歩3分】厳選食材を活かした絶品『とんかつ』,"￥1,000～￥1,999","￥1,000～￥1,999",3.67,-,https://tabelog.com/tokyo/A1316/A131601/13218267/,予約不可,,JR線 目黒駅　徒歩３分東急目黒線 目黒駅　徒歩３分南北線 目黒駅　徒歩３分 目黒駅から207m,11:00 - 14:30L.O. 14:00,定休日：不定休,カード可 （VISA、Master、JCB、AMEX、Diners） 電子マネー可 （交通系電子マネー（Suicaなど）、楽天Edy、nanaco、WAON、iD、QUICPay） QRコード決済可 （PayPay、d払い、楽天ペイ、au PAY）,"35.63394733873064,139.71803898394074",03-6450-2984,東京都品川区上大崎3-3-4 ヤマヒロビル 1F,1091,tonkatsu,True,35.63394733873064,139.71803898394074
食べログ とんかつ 百名店 2024 選出店,とんかつ武信 代々木上原店,代々木上原駅 314m , とんかつ、かつ丼,,"￥1,000～￥1,999","￥1,000～￥1,999",3.67,月曜日,https://tabelog.com/tokyo/A1318/A131811/13024248/,予約不可,誠に恐れ入りますが、席の御予約は承っておりません。宜しくお願い申し上げます。,小田急線、地下鉄千代田線　代々木上原駅東口より徒歩約3分 代々木上原駅から314m,11:30 - 15:00L.O. 14:20,■ 定休日月曜日(祝日の場合は営業）不定期で月火連休を頂く場合がございます。お休みは、「食べログ」および「店舗ホームページ」でご案内しておりますので、そちらをご参照ください。,カード可 （VISA、Master、JCB、AMEX、Diners、UnionPay） 電子マネー可 （交通系電子マネー（Suicaなど）、iD、QUICPay） QRコード決済不可,"35.670254365902395,139.68282314401017",03-3466-1125,東京都渋谷区西原3-1-7 ティーズプレイス 1F,819,tonkatsu,False,35.670254365902395,139.68282314401017
食べログ とんかつ 百名店 2024 選出店,西麻布 豚組,乃木坂駅 734m , とんかつ、カレー、豚料理,,"￥4,000～￥4,999","￥4,000～￥4,999",3.67,月曜日,https://tabelog.com/tokyo/A1307/A130701/13004791/,予約可,,千代田線及木坂駅5番出口徒歩7分/日比谷線六本木駅2番出口 徒歩8分 乃木坂駅から734m,11:30 - 15:00L.O. 14:00,年末年始はお休み。都合により臨時休業あります。,カード可 （VISA、Master、JCB、AMEX、Diners） 電子マネー不可 QRコード決済可 （PayPay）,"35.66096593871478,139.72212878421078",03-5466-6775,東京都港区西麻布2-24-9 ,752,tonkatsu,False,35.66096593871478,139.72212878421078
,とんかつ 幻水豚,三軒茶屋駅 125m , とんかつ、食堂、オーガニック,,"￥1,000～￥1,999","￥1,000～￥1,999",3.67,水曜日,https://tabelog.com/tokyo/A1317/A131706/13267114/,予約不可,,三軒茶屋駅徒歩3分 三軒茶屋駅から125m,11:00 - 15:00,■ 定休日年末年始,カード不可 電子マネー不可 QRコード決済不可,"35.64334953871027,139.67283348406738",不明の為情報お待ちしております,東京都世田谷区三軒茶屋1-40-14 太子堂ハイム 102,543,tonkatsu,False,35.64334953871027,139.67283348406738
食べログ とんかつ 百名店 2024 選出店,自然坊,久が原駅 349m , とんかつ、弁当、居酒屋,,"￥3,000～￥3,999","￥3,000～￥3,999",3.67,水曜日,https://tabelog.com/tokyo/A1317/A131714/13076783/,予約可,ネット予約はInstagram、ホームページ、Googleより可能です。お電話でもいつでもお気軽に。I,東急池上線「久が原」駅より徒歩６分「千鳥町」駅より徒歩11分「御嶽山」駅より徒歩14分 久が原駅から349m,,,カード可 （VISA、Master、JCB、AMEX、Diners） 電子マネー不可 QRコード決済不可,"35.579429638756174,139.6894798834101",03-5700-5330,東京都大田区久が原4-19-24 ,303,tonkatsu,False,35.579429638756174,139.6894798834101
,とんかつ ここまでやるか。,外苑前駅 286m , とんかつ,【とんかつ好きが、本当に行きたいとんかつ屋】,"￥6,000～￥7,999","￥6,000～￥7,999",3.67,,https://tabelog.com/tokyo/A1306/A130603/13294363/,予約可,◆ランチタイムもご予約ください◆混雑時、滞在時間に関して下記の通りご相談させて頂く場合がございますランチ : 1時間ディナー : 1名様 1時間半、2名様以上 2時間※席タイプのご要望に添えない場合もございます。※貸切ご希望はお電話にて承ります。予めご了承くださいませ。,「外苑前」1a出口から徒歩5分 外苑前駅から286m,11:00 - 15:00L.O. 14:30,＊祝日関係なく日曜定休です。＊ランチタイムもご予約が可能です。,カード可 電子マネー可 （交通系電子マネー（Suicaなど）、iD、QUICPay） QRコード決済可 （PayPay）,"35.66781994948471,139.71722873204791",03-6455-4185,東京都港区南青山3-2-4 セントラル青山No6-BA,245,tonkatsu,False,35.66781994948471,139.71722873204791
,とんかつ とんき 目黒本店,目黒駅 136m , とんかつ,,"￥2,000～￥2,999","￥2,000～￥2,999",3.66,火曜日,https://tabelog.com/tokyo/A1316/A131601/13002040/,予約可,予約は４名以上のみ,JR目黒駅(西口)より、徒歩約２分東急電鉄、都営地下鉄、東京メトロ　目黒駅より、徒歩約3分 目黒駅から136m,16:00 - 21:00,■ 定休日第3月曜,カード可 （VISA、Master、JCB、AMEX、Diners） 電子マネー不可 QRコード決済可 （PayPay）,"35.63360673872966,139.71429438393992",03-3491-9928,東京都目黒区下目黒1-1-2 ,1838,tonkatsu,False,35.63360673872966,139.71429438393992
,とんかつ山家 上野店,上野御徒町駅 90m , とんかつ、食堂、コロッケ,,～￥999,～￥999,3.66,-,https://tabelog.com/tokyo/A1311/A131101/13162760/,予約不可,,都営地下鉄大江戸線【上野御徒町駅】徒歩３分東京メトロ銀座線【上野広小路駅】徒歩３分　※地下通路Ａ５地上口　徒歩１分ＪＲ山手線・京浜東北線【御徒町駅】北口　徒歩３分 上野御徒町駅から90m,,,カード不可 電子マネー不可 QRコード決済不可,"35.70867333870095,139.77383568465643",03-5817-7045,東京都台東区上野4-5-1 ,1414,tonkatsu,False,35.70867333870095,139.77383568465643
食べログ とんかつ 百名店 2024 選出店,丸一,大森駅 217m , とんかつ,,"￥1,000～￥1,999","￥1,000～￥1,999",3.66,水曜日、日曜日、祝日,https://tabelog.com/tokyo/A1315/A131502/13003332/,予約不可,,JR大森駅東口徒歩２分 大森駅から217m,,,カード不可 電子マネー不可 QRコード決済不可,"35.587346238763224,139.72741198346347",03-3762-2601,東京都大田区大森北1-7-2 ,667,tonkatsu,False,35.587346238763224,139.72741198346347
,とんかつ山家 御徒町店,御徒町駅 125m , とんかつ,,～￥999,～￥999,3.65,-,https://tabelog.com/tokyo/A1311/A131101/13138428/,予約不可,,JR山手線「御徒町」駅(北口)から徒歩2分東京メトロ「上野広小路」駅または大江戸線「上野御徒町」駅(A7出口)すぐ 御徒町駅から125m,,,カード不可 電子マネー不可 QRコード決済不可,"35.708292838701716,139.77544198465148",03-5812-8076,東京都台東区上野6-2-6 胡同ビル 1F,1691,tonkatsu,False,35.708292838701716,139.77544198465148
,かつ吉 水道橋店,水道橋駅 39m , とんかつ、ステーキ、豚しゃぶ,,"￥2,000～￥2,999","￥2,000～￥2,999",3.65,-,https://tabelog.com/tokyo/A1310/A131003/13003524/,予約可,,JR総武線水道橋駅東口より徒歩1分都営地下鉄三田線水道橋駅A1口より徒歩1分 水道橋駅から39m,11:00 - 15:30L.O. 14:30,■ 定休日無休（12/31～1/2お正月休み）,カード可 （VISA、Master、JCB、AMEX、Diners） 電子マネー不可,"35.70321783869855,139.75544108461423",03-3812-6268,東京都文京区本郷1-4-1 全水道会館　Ｂ１Ｆ,1074,tonkatsu,False,35.70321783869855,139.75544108461423
食べログ 食堂 百名店 2024 選出店,割烹 三友,人形町駅 222m , 食堂、コロッケ、とんかつ,,"￥1,000～￥1,999","￥1,000～￥1,999",3.65,土曜日、日曜日、祝日,https://tabelog.com/tokyo/A1302/A130204/13048033/,予約可,夜の部は予約可(電話),東京メトロ日比谷線【人形町駅】徒歩２分東京メトロ半蔵門線【水天宮前駅】徒歩３分都営地下鉄浅草線【人形町駅】徒歩４分 人形町駅から222m,,,カード可 （VISA、Master、JCB、AMEX、Diners） 電子マネー可 （交通系電子マネー（Suicaなど）、iD、QUICPay） QRコード決済可 （PayPay、d払い、楽天ペイ、au PAY）,"35.68412003871939,139.78276058440215",03-3666-1684,東京都中央区日本橋人形町1-10-8 ,794,tonkatsu,False,35.68412003871939,139.78276058440215
食べログ とんかつ 百名店 2024 選出店,鈴新,四谷三丁目駅 234m , とんかつ、かつ丼,,"￥1,000～￥1,999","￥1,000～￥1,999",3.65,日曜日、祝日,https://tabelog.com/tokyo/A1309/A130903/13027073/,予約可,夜のみ予約可,東京メトロ丸ノ内線【四谷三丁目駅】徒歩４分都営地下鉄新宿線【曙橋駅】徒歩６分 四谷三丁目駅から234m,,,カード不可 電子マネー可 QRコード決済可 （PayPay）,"35.6893969006635,139.72251841040938",03-3341-0768,東京都新宿区荒木町10-28 十番館ビル 1F,640,tonkatsu,False,35.6893969006635,139.72251841040938
,くり家,錦糸町駅 476m , とんかつ,,"￥1,000～￥1,999","￥1,000～￥1,999",3.65,月曜日、火曜日,https://tabelog.com/tokyo/A1312/A131201/13041484/,予約不可,,総武中央線　東京メトロ半蔵門線　錦糸町駅北口　徒歩７分 錦糸町駅から476m,,,カード不可 電子マネー不可 QRコード決済不可,"35.698938538718565,139.80974138453294",03-3625-9619,東京都墨田区錦糸1-12-2 ,468,tonkatsu,False,35.698938538718565,139.80974138453294
,つかんと,虎ノ門ヒルズ駅 241m , とんかつ,,"￥2,000～￥2,999","￥2,000～￥2,999",3.65,-,https://tabelog.com/tokyo/A1308/A130802/13247540/,予約不可,何人で行っても席作ってくれる,東京メトロ銀座線【虎ノ門駅】徒歩４分東京メトロ日比谷線【虎ノ門ヒルズ駅】徒歩４分 虎ノ門ヒルズ駅から241m,11:30 - 14:00,■ 営業時間ランチ12:00〜14:00（売切次第終了）■ 定休日なし　店外イベント等による臨時休業日あり,カード可 （VISA、Master、JCB、AMEX） 電子マネー可 （交通系電子マネー（Suicaなど）、楽天Edy、nanaco、WAON、iD、QUICPay） QRコード決済可,"35.66801993871924,139.75023058426234",080-8810-4486,東京都港区虎ノ門1-17-1 虎ノ門ヒルズ ビジネスタワー 3F,444,tonkatsu,False,35.66801993871924,139.75023058426234
,あげづき コレド室町テラス店,新日本橋駅 177m , とんかつ,,"￥2,000～￥2,999","￥2,000～￥2,999",3.65,-,https://tabelog.com/tokyo/A1302/A130202/13239408/,予約可,,新日本橋駅から177m,,,カード可 電子マネー可 QRコード決済可,"35.68782710862292,139.7725196078692",03-6910-3558,東京都中央区日本橋室町3-2-1 コレド室町テラス 1F,260,tonkatsu,False,35.68782710862292,139.7725196078692
,銀座とんかつ檍,銀座駅 101m , とんかつ,,"￥4,000～￥4,999","￥4,000～￥4,999",3.65,,https://tabelog.com/tokyo/A1301/A130101/13289487/,予約可,・銀座店は2店舗御座います。当店は、銀座とんかつ檍(銀座4丁目店)です。とんかつ檍銀座8丁目店とお間違えのない様にご来店くださいませ。・混雑時はお席のご利用時間を、ランチタイム60分、ディナータイム90分とさせて頂きますのでご了承下さい。・ご予約の時間からご連絡なしで15分過ぎた際には強制キャンセルとさせて頂きます。,銀座駅　徒歩3分有楽町駅　徒歩7分東銀座駅　徒歩8分 銀座駅から101m,,,カード可 （VISA、Master、JCB、AMEX、Diners） 電子マネー可 （交通系電子マネー（Suicaなど）、楽天Edy、iD、QUICPay） QRコード決済可 （PayPay、d払い、楽天ペイ、au PAY）,"35.67257055170491,139.76489316590636",03-3528-6527,東京都中央区銀座4-3-2 槁ビル 5F,157,tonkatsu,True,35.67257055170491,139.76489316590636
食べログ とんかつ 百名店 2024 選出店,とんかつ 明石,新橋駅 79m , とんかつ、かつ丼,,"￥1,000～￥1,999","￥1,000～￥1,999",3.64,土曜日、日曜日、祝日,https://tabelog.com/tokyo/A1301/A130103/13033663/,予約可,,ＪＲ山手線・京浜東北線【新橋駅】烏森口／日比谷口　徒歩１分東京メトロ銀座線【新橋駅】徒歩３分都営地下鉄浅草線【新橋駅】徒歩４分 新橋駅から79m,,,カード不可 電子マネー不可 QRコード決済不可,"35.666281438722635,139.75738138423978",03-3593-0017,東京都港区新橋2-16-1 ニュー新橋ビル 4F,1044,tonkatsu,False,35.666281438722635,139.75738138423978
,とんかつ檍のカレー屋 いっぺこっぺ 芝大門店,大門駅 106m , カレー、とんかつ,,"￥1,000～￥1,999","￥1,000～￥1,999",3.64,日曜日,https://tabelog.com/tokyo/A1314/A131401/13235122/,予約不可,,大門駅から106m,,,カード不可 電子マネー不可 QRコード決済不可,"35.65628523872781,139.7537097841414",03-6450-1110,東京都港区芝大門2-3-17 ,565,tonkatsu,False,35.65628523872781,139.7537097841414
食べログ とんかつ 百名店 2024 選出店,とんかつ 大宝,目黒駅 366m , とんかつ、かつ丼,【目黒駅5分】腕利きの職人による上質なとんかつを堪能◆落ち着いた店内でじっくりとお食事を,"￥2,000～￥2,999","￥2,000～￥2,999",3.63,-,https://tabelog.com/tokyo/A1316/A131601/13007463/,予約不可,,目黒駅（JR山手線、東急目黒線、都営地下鉄三田線、東京メトロ南北線）から徒歩5分 目黒駅から366m,11:30 - 15:00L.O. 14:30,■ 営業時間[月～日]11:30～15:00(L.O14:30)18:00～22:00(L.O21:30)※土日祝日はランチメニュー(お弁当含む)の販売はありません。■ 不定休/年末年始,カード可 （VISA、Master、JCB、AMEX、Diners） 電子マネー可 （交通系電子マネー（Suicaなど）、楽天Edy、nanaco、WAON、iD、QUICPay） QRコード決済可 （PayPay、d払い、楽天ペイ、au PAY）,"35.63443833872832,139.7117693839501",03-3491-9470,東京都目黒区目黒1-6-15 1F,1200,tonkatsu,True,35.63443833872832,139.7117693839501
食べログ とんかつ 百名店 2024 選出店,イマカツ 銀座店,東銀座駅 126m , とんかつ,【東銀座駅2分】熟練の職人技が光る上質なとんかつと、こだわりの逸品料理を愉しむ。座敷有◎,"￥2,000～￥2,999","￥2,000～￥2,999",3.63,日曜日,https://tabelog.com/tokyo/A1301/A130101/13159038/,予約可,ディナーのみ予約可,東京メトロ日比谷線【東銀座駅】徒歩２分都営地下鉄浅草線【東銀座駅】徒歩３分 東銀座駅から126m,11:30 - 16:00L.O. 15:30,平素より当店をご利用いただき、誠にありがとうございます。この度、設備に不具合が見つかったため、回復工事のため一時休業とさせて頂きます。再開は9月20日（金）18時を予定しております。お問い合わせは店舗にお願い致します。TEL 03-3543-1029,カード可 （VISA、Master、JCB、AMEX、Diners） 電子マネー可 （交通系電子マネー（Suicaなど）、nanaco、WAON、iD、QUICPay）,"35.66959213872415,139.76874458426525",03-3543-1029,東京都中央区銀座4-13-18 医療ビル 1F,1087,tonkatsu,False,35.66959213872415,139.76874458426525
食べログ とんかつ 百名店 2024 選出店,とんかつ桂,国分寺駅 966m , とんかつ,,-,-,3.63,月曜日、火曜日、金曜日,https://tabelog.com/tokyo/A1325/A132502/13016062/,予約不可,,国分寺駅から、徒歩17分です。一橋学園駅から、徒歩20分です。国分寺駅の北口バスターミナルではなく、西武多摩湖線の国分寺駅の横、国分寺駅北入口バス停から、西武新宿線、小平駅南口行き「国６１」「国６２」系統のバスに乗車し、１つ目の停留所、「第３小学校前」で下車。バス停の前が「とんかつ桂」。 国分寺駅から966m,11:00 - 13:00,■ 営業時間11:00～13:00頃並びによって早く開いて早く閉まる,カード不可 電子マネー不可 QRコード決済不可,"35.70876273860672,139.47808458486466",非公開,東京都小平市上水本町5-7-20 ,460,tonkatsu,False,35.70876273860672,139.47808458486466
,とんかつ檍のカレー屋 いっぺこっぺ 秋葉原店,末広町駅 224m , カレー、とんかつ,,"￥1,000～￥1,999","￥1,000～￥1,999",3.63,-,https://tabelog.com/tokyo/A1311/A131101/13259701/,予約不可,,東京メトロ銀座線　末広町駅　３番出口 徒歩３分JR 山手線　秋葉原駅　電気街口　徒歩８分 末広町駅から224m,11:00 - 20:00,■ 営業時間[年中無休],カード不可 電子マネー不可 QRコード決済不可,"35.70198823870381,139.76950678459195",03-6384-0015,東京都千代田区外神田3-5-3 ,432,tonkatsu,False,35.70198823870381,139.76950678459195
,蓬莱屋,上野御徒町駅 71m , とんかつ、串揚げ,,-,-,3.63,水曜日,https://tabelog.com/tokyo/A1311/A131101/13003598/,予約可,弁当5個以上の注文は前日までに予約が望ましい,ＪＲ山手線・京浜東北線　御徒町駅　徒歩１分東京メトロ銀座線　上野広小路駅　徒歩１分都営地下鉄大江戸線　上野御徒町駅　徒歩１分東京メトロ日比谷線　仲御徒町駅　徒歩２分 上野御徒町駅から71m,11:30 - 14:30L.O. 14:00,■ 定休日水曜日（祝の場合営業、翌木休）,カード可 （VISA、AMEX） 電子マネー不可 QRコード決済不可,"35.70736309652503,139.77377499302597",03-3831-5783,東京都台東区上野3-28-5 ,386,tonkatsu,False,35.70736309652503,139.77377499302597
,とんかつ憲進,飯田橋駅 342m , とんかつ,軽子坂の隠れ家的とんかつ専門店。独特なビジュアルの、ふわふわサクサクのとんかつです。,"￥4,000～￥4,999","￥4,000～￥4,999",3.63,月曜日、木曜日、祝日,https://tabelog.com/tokyo/A1309/A130905/13282484/,予約可,ご予約は、ディナーのみ席数限定で予約可能です。土日祝も予約可能となりました。当日15:00まで受け付けております。予約方法については、お店のHPをご覧ください。,神楽坂駅（東西線）より徒歩約7分。飯田橋駅（東西線、有楽町線、南北線、都営大江戸線、JR）より徒歩約7分※飯田橋駅は最寄りの地下鉄出口はB4bです。 飯田橋駅から342m,11:00 - 14:00,■ 定休日＊月曜・木曜が祝日でもお休みです。,カード可 （VISA、Master、JCB、AMEX、Diners） 電子マネー可 （交通系電子マネー（Suicaなど）、楽天Edy、nanaco、WAON、iD、QUICPay） QRコード決済不可,"35.70224253869454,139.7408832846146",03-6826-9862,東京都新宿区神楽坂3-1-23 Ami神楽坂 2F,284,tonkatsu,False,35.70224253869454,139.7408832846146
,丸八とんかつ店 本店,大井町駅 163m , とんかつ,,"￥2,000～￥2,999","￥2,000～￥2,999",3.62,月曜日,https://tabelog.com/tokyo/A1315/A131501/13007363/,予約不可,,JR東日本 京浜東北線・りんかい線 大井町駅東口より徒歩2分 大井町駅から163m,11:30 - 21:30L.O. 21:00,定食全品300円UP,カード不可 電子マネー不可 QRコード決済不可,"35.60732063875338,139.73630378365897",03-3471-2681,東京都品川区東大井5-4-10 ,1362,tonkatsu,False,35.60732063875338,139.73630378365897
,とんかつ 大希 蒲田,京急蒲田駅 47m , とんかつ、串揚げ、居酒屋,白い衣のヒレかつ 【とんかつ大希】,"￥2,000～￥2,999","￥2,000～￥2,999",3.62,,https://tabelog.com/tokyo/A1315/A131503/13263034/,予約可,"混雑時のお席のご利用は1時間15分とさせて頂きます。ご連絡なしでご予約時間を30分を過ぎた場合はキャンセル扱いとさせて頂きます。お席のご要望があるお客様はその旨お知らせくださいませ。※ご予約の状況によりご希望に添えない場合もございます。ランチタイムの御予約は,お電話にてお受けいたします。",京急蒲田駅より徒歩1分　JR蒲田駅より徒歩8分 京急蒲田駅から47m,,,カード可 （VISA、Master、JCB、AMEX） 電子マネー可 （交通系電子マネー（Suicaなど）、楽天Edy、iD、QUICPay） QRコード決済不可,"35.56123263877861,139.72362578320232",03-6715-8845,東京都大田区蒲田4-10-14 あすとウィズ 2F,442,tonkatsu,False,35.56123263877861,139.72362578320232
,Fry家,高田馬場駅 193m , とんかつ、肉料理、洋食,【高田馬場駅3分】★2025年ミシュランビブグルマン獲得★美味しいフライを少量多品種で！,"￥8,000～￥9,999","￥8,000～￥9,999",3.62,,https://tabelog.com/tokyo/A1305/A130503/13288438/,予約可,,JR高田馬場駅より徒歩3分 高田馬場駅から193m,11:00 - 14:30L.O. 14:00,■ 営業時間デイナー最終入店21:00（ロングコースは19:45最終受付）※定食メニューはご予約は承れませんが、当日お越しでお席に空きがあれば、ディナータイムに定食メニューも提供しています。■ 定休日不定休,カード可 （VISA、Master、JCB、AMEX、Diners） 電子マネー不可 QRコード決済可 （PayPay）,"35.71081289400192,139.7037917574026",03-3200-0565,東京都新宿区高田馬場1-32-11 小澤ビル B1F,293,tonkatsu,False,35.71081289400192,139.7037917574026
,イマカツ 六本木本店,六本木駅 196m , とんかつ、日本料理、コロッケ,【六本木駅2分】熟練の職人が腕を振るう自慢のとんかつ◆全てのこだわりを五感で味わう。個室有,"￥2,000～￥2,999","￥2,000～￥2,999",3.61,日曜日,https://tabelog.com/tokyo/A1307/A130701/13096723/,予約可,※ご予約は、ディナーのみ可能です。（ランチは、全席ご予約不可です。）ご予約は、お電話で１4時～１５時、１９時〜２１時が繋がりやすいです。,●都営地下鉄大江戸線「 六本木 」駅 ７番出口から徒歩２分●東京メトロ日比谷線「 六本木 」駅 ４ａ出口から徒歩５分 六本木駅から196m,,,カード可 （VISA、Master、JCB、AMEX、Diners） 電子マネー可 （交通系電子マネー（Suicaなど）、楽天Edy、nanaco、WAON、iD、QUICPay） QRコード決済可 （PayPay）,"35.664449738715575,139.73157848423938",03-3408-1029,東京都港区六本木4-12-5 フェニキア ルクソス 1F,853,tonkatsu,False,35.664449738715575,139.73157848423938
,とんかつ檍 浅草橋店,浅草橋駅 579m , とんかつ,,"￥1,000～￥1,999","￥1,000～￥1,999",3.61,月曜日、日曜日,https://tabelog.com/tokyo/A1311/A131103/13225168/,予約不可,,JR浅草橋駅西口　徒歩8分都営地下鉄浅草線　浅草橋駅　徒歩9分JR秋葉原駅昭和通り口　徒歩13分 浅草橋駅から579m,,,カード不可 電子マネー不可,"35.70124033870797,139.78105318457628",03-5820-1011,東京都台東区浅草橋5-20-8 CSタワービル 107,523,tonkatsu,False,35.70124033870797,139.78105318457628
,とんかつ 檍 日本橋店,新日本橋駅 183m , とんかつ,,"￥2,000～￥2,999","￥2,000～￥2,999",3.61,日曜日,https://tabelog.com/tokyo/A1310/A131002/13258371/,予約不可,,銀座線三越前駅から５分半蔵門線三越前駅から８分 新日本橋駅から183m,11:00 - 15:00,■ 定休日第3月曜日,カード不可 電子マネー不可 QRコード決済不可,"35.689748938712455,139.7722287844664",03-6265-1980,東京都中央区日本橋室町4-2-10 坂田ビル 1F,357,tonkatsu,False,35.689748938712455,139.7722287844664
,とんかつ檍のカレー屋 いっぺこっぺ 飯田橋店,九段下駅 452m , カレー、とんかつ,,"￥1,000～￥1,999","￥1,000～￥1,999",3.61,日曜日,https://tabelog.com/tokyo/A1309/A130905/13239562/,予約不可,,JR飯田橋駅東口　徒歩4分東京メトロ飯田橋駅　徒歩3分都営新宿線　九段下駅　徒歩3分 九段下駅から452m,,,カード不可 電子マネー不可 QRコード決済不可,"35.69901293869916,139.74896798457627",03-6910-0732,東京都千代田区飯田橋1-7-11 ダン・リーガルビル 1F,336,tonkatsu,False,35.69901293869916,139.74896798457627
食べログ とんかつ 百名店 2024 選出店,かつ吉 渋谷店,渋谷駅 311m , とんかつ、日本料理、居酒屋,【渋谷駅徒歩2分】伝統製法を守るとんかつ専門店です。,"￥2,000～￥2,999","￥2,000～￥2,999",3.59,,https://tabelog.com/tokyo/A1303/A130301/13004792/,予約可,●お席の場所、席種の指定はお受けしておりません。●エレベーター、お子様向けの設備、ベビーカーの入る席などご用意ありません。●全席禁煙です。喫煙スペースのご用意はございません。●個別でのお会計をご希望の際は現金でのお支払いのみのお取り扱いとさせていただいております。●ご予約時間を15分過ぎてご連絡がない場合やむを得ずキャンセル扱いとさせていただく場合がございますので必ずご連絡下さい。,渋谷駅、駅近辺より最寄の階段より地下道に下り、案内板を参考に『C2(渋谷ストリーム方面)』出口よりエスカレーターにて地上へ向かって下さい。エスカレーターを降りた向きのまま直進し、カラオケ屋さんの前の大きな横断歩道（明治通り）を左に渡るとすぐ右前、地下1階にございます。 渋谷駅から311m,11:00 - 16:00L.O. 15:00,■ 定休日荒天時。12/31～1/2お正月休み（12/30はランチタイムのみの営業です。）,カード可 （VISA、Master、JCB、AMEX、Diners） 電子マネー可 （交通系電子マネー（Suicaなど）） QRコード決済不可,"35.6572036387116,139.70464208418502",050-3134-5712,東京都渋谷区渋谷3-9-10 ＫＤＣビル B1F,1514,tonkatsu,False,35.6572036387116,139.70464208418502
,とんかつ檍のカレー屋 いっぺこっぺ 新橋店,新橋駅 87m , カレー、とんかつ,,"￥1,000～￥1,999","￥1,000～￥1,999",3.59,-,https://tabelog.com/tokyo/A1301/A130103/13267744/,予約不可,,JR新橋駅より徒歩2分 新橋駅から87m,,,カード不可 電子マネー不可 QRコード決済不可,"35.66673103872234,139.75736258424433",03-6206-7300,東京都港区新橋2-16-1 ニュー新橋ビル 1F,643,tonkatsu,False,35.66673103872234,139.75736258424433
,とんかつ檍のカレー屋 いっぺこっぺ 西新宿店,新宿西口駅 261m , カレー、とんかつ,,"￥1,000～￥1,999","￥1,000～￥1,999",3.59,日曜日、祝日,https://tabelog.com/tokyo/A1304/A130401/13259821/,予約不可,,JR新宿駅より、徒歩5分 新宿西口駅から261m,11:00 - 15:00L.O. 15:00,■ 定休日第四土曜日,カード不可 電子マネー不可 QRコード決済不可,"35.69537863868499,139.6972597845758",03-5937-2526,東京都新宿区西新宿7-15-5 ,382,tonkatsu,False,35.69537863868499,139.6972597845758
,とんかつ多酒多彩 地蔵,大泉学園駅 81m , とんかつ、コロッケ,,"￥2,000～￥2,999","￥2,000～￥2,999",3.59,-,https://tabelog.com/tokyo/A1321/A132103/13047182/,予約可,,西武池袋線「大泉学園駅」北口から徒歩２分北口出て左側歩道橋デッキを進みエレベーターで地上へ。福の唐揚げ屋と魚民の間の道を右折スグ 大泉学園駅から81m,,,カード可 （VISA、Master、JCB、AMEX、Diners） 電子マネー可 QRコード決済可 （PayPay）,"35.75020843861485,139.58631628520743",03-3923-7939,東京都練馬区東大泉1-30-9 ＴＫビル 1F,376,tonkatsu,False,35.75020843861485,139.58631628520743
,とんかつ おさむ,椎名町駅 458m , とんかつ、かつ丼、カレー,,-,-,3.58,月曜日、水曜日、金曜日、日曜日,https://tabelog.com/tokyo/A1321/A132101/13012436/,予約不可,,・西武池袋線「椎名町」駅(南口)から徒歩7分・都営大江戸線「落合南長崎」駅(A1出口)から徒歩10分・JR山手線「目白」駅から徒歩15～20分 椎名町駅から458m,11:00 - 13:00,■ 営業時間※現在は持ち帰り弁当のみ。受付時間　7:00～受け取り時間　11:00～13:00※売り切れ次第終了■ 定休日月曜・水曜・金曜・日曜（祝日の場合は営業）※月一回不定休有り,カード不可 電子マネー不可 QRコード決済不可,"35.7233650386653,139.69120208486274",03-3951-4961,東京都豊島区南長崎1-3-11 ,290,tonkatsu,False,35.7233650386653,139.69120208486274
,とんかつ そら,荻窪駅 53m , とんかつ、ヨーロッパ料理、居酒屋,荻窪駅スグ◆フレンチの技法を取り入れた”とんかつ”を前菜と共に…♪食事会・飲み会歓迎◎,"￥2,000～￥2,999","￥2,000～￥2,999",3.58,,https://tabelog.com/tokyo/A1319/A131906/13278914/,予約可,①４名様以上でご利用のお客様へ全ての料理を一人で作っている関係上、４名様以上のグループヘの料理の提供が遅れる場合があります。ご了承の上、ご予約いただけると幸いです。②5名様以上のご利用は、ご予約のコースのみに限らせていただきます。③電話予約、ネット予約が重複した場合は電話予約を優先とさせていただきます。その場合は別途お電話またはメールでご連絡いたします。,JR中央線　荻窪駅北口より徒歩30秒東京メトロ丸ノ内線　荻窪駅北口より徒歩30秒 荻窪駅から53m,11:30 - 15:00L.O. 14:30,■ 定休日の他に、月3〜4回不定休あり ※10月前半の不定休日：10/2(水)・8(火),カード可 （VISA、Master、JCB、AMEX、Diners） 電子マネー可 （交通系電子マネー（Suicaなど）、iD、QUICPay） QRコード決済可 （PayPay）,"35.704948538654385,139.6202014847265",03-5335-7567,東京都杉並区上荻1-8-8 興和ビル B1F,212,tonkatsu,False,35.704948538654385,139.6202014847265
,三福亭,馬喰町駅 109m , 食堂、とんかつ、洋食,,"￥1,000～￥1,999","￥1,000～￥1,999",3.57,-,https://tabelog.com/tokyo/A1302/A130204/13059379/,予約不可,,都営新宿線馬喰横山駅A2もしくはA１出口より徒歩１～２分　馬喰町交差点わたって直ぐ 馬喰町駅から109m,,,カード不可 電子マネー不可 QRコード決済不可,"35.693150838713215,139.78139318449433",03-3661-6955,東京都中央区日本橋馬喰町1-4-10 ,481,tonkatsu,False,35.693150838713215,139.78139318449433
,とんかつ 檍 赤坂店,赤坂駅 212m , とんかつ,【赤坂駅3分】肉汁のジューシーさが魅力の“極上とんかつ”を堪能。お一人様でのご利用も歓迎,"￥2,000～￥2,999","￥2,000～￥2,999",3.57,,https://tabelog.com/tokyo/A1308/A130801/13294879/,予約可,平日のランチタイムはご予約を受け付けておりません。お席のみのご予約は、お一人様400円(込)のテーブルチャージ料を頂いております。＊中学生以下200円(込)、乳幼児なしご連絡がない場合は予約時間15分を過ぎますとキャンセル扱いとなります。お弁当の予約は可。,東京メトロ千代田線赤坂駅徒歩3分 赤坂駅から212m,11:00 - 15:00,■定休日年中無休！…の予定（笑）,カード可 （VISA、Master、JCB、AMEX） 電子マネー不可 QRコード決済可 （PayPay）,"35.67327633871208,139.73819888432385",03-5797-8686,東京都港区赤坂3-12-10 赤坂サンビル B1F,144,tonkatsu,False,35.67327633871208,139.73819888432385
,銀座 とんかつ 斉藤,東銀座駅 319m , とんかつ,【当日予約はTELにて！東銀座駅2分】肉汁たっぷり、ジューシーで柔らかいとんかつ。個室完備,"￥3,000～￥3,999","￥3,000～￥3,999",3.57,,https://tabelog.com/tokyo/A1301/A130101/13294753/,予約可,,「東銀座」駅４番出口から徒歩２分「銀座」駅から徒歩５分「新橋」駅から徒歩７分 東銀座駅から319m,11:30 - 15:00L.O. 14:30,土日が祝日の場合はお休みです。L.O.前に売り切れになる場合がございます。一度お電話いただけますと幸いです。,カード可 （VISA、Master、JCB、AMEX、Diners） 電子マネー可 （交通系電子マネー（Suicaなど）、楽天Edy、iD、QUICPay） QRコード決済可 （d払い、楽天ペイ、au PAY）,"35.66737999412404,139.7647984127583",090-3426-3110,東京都中央区銀座7-14-14 銀座7ビル B1F,91,tonkatsu,False,35.66737999412404,139.7647984127583
,とんき,駒込駅 228m , とんかつ,,"￥2,000～￥2,999","￥2,000～￥2,999",3.56,木曜日,https://tabelog.com/tokyo/A1323/A132301/13008866/,予約不可,,ＪＲ駒込駅東口から 徒歩2分 駒込駅から228m,11:45 - 14:00,■ 定休日第3水曜,カード不可 電子マネー不可 QRコード決済不可,"35.73851813867407,139.7489766849753",03-3949-7387,東京都北区中里2-4-5 ,437,tonkatsu,False,35.73851813867407,139.7489766849753
,檍食堂 蒲田東口店,蒲田駅 285m , 食堂、とんかつ,,"￥1,000～￥1,999","￥1,000～￥1,999",3.56,月曜日,https://tabelog.com/tokyo/A1315/A131503/13288622/,予約不可,,JR蒲田駅東口から徒歩4分 蒲田駅から285m,,,カード不可 電子マネー不可 QRコード決済可 （PayPay）,"35.5617794387768,139.71905508321103",03-5703-0200,東京都大田区蒲田5-21-11 ,186,tonkatsu,False,35.5617794387768,139.71905508321103
食べログ とんかつ 百名店 2024 選出店,井泉 本店,上野広小路駅 76m , とんかつ、サンドイッチ、かつ丼,昭和５年に「お箸できれる やわらかい とんかつ」を考案して創業。 「かつサンド」発祥の店です。,"￥3,000～￥3,999","￥3,000～￥3,999",3.55,水曜日,https://tabelog.com/tokyo/A1311/A131101/13003619/,予約可,予約は１日２組（1組につき6名様まで）までお受けしております。午前11:30午後14:30〜土日祝日は予約不可。椅子、お座敷、選択不可。ご予約なしでも皆様ご来店頂いております。,JR　御徒町駅　徒歩3分東京メトロ　日比谷線　仲御徒町駅　出口A4より徒歩5分東京メトロ　銀座線　上野広小路駅　出口A4より徒歩１分都営　大江戸線　上野御徒町駅　出口A4より徒歩1分東京メトロ　千代田線　湯島駅　出口4より徒歩5分都営バス　上野広小路バス停下車　徒歩1分 上野広小路駅から76m,11:30 - 15:00,■ 営業時間11:30〜15:0016:30〜19:45しばらくの間、中休みをいただきます。（2024/10）■ 定休日水曜日（祝日の場合は営業）,カード不可 電子マネー不可 QRコード決済不可,"35.7074695387012,139.7721958846454",03-3834-2901,東京都文京区湯島3-40-3 ,1500,tonkatsu,False,35.7074695387012,139.7721958846454
,日本橋とんかつ 一 日本橋本店,三越前駅 129m , とんかつ、かつ丼、カレー,上質なとんかつを日常に、普段使いのとんかつ専門店,"￥1,000～￥1,999","￥1,000～￥1,999",3.55,月曜日,https://tabelog.com/tokyo/A1302/A130202/13272021/,予約不可,,東京メトロ　三越前駅 A4出口より、徒歩3分 三越前駅から129m,,,カード可 （VISA、Master、JCB、AMEX、Diners） 電子マネー可 （交通系電子マネー（Suicaなど）、iD） QRコード決済可 （PayPay）,"35.68644803871555,139.77536008443087",03-6262-5883,東京都中央区日本橋室町1-13-9 池田ビル 1F,625,tonkatsu,False,35.68644803871555,139.77536008443087
,豚組食堂,六本木駅 218m , とんかつ,,"￥1,000～￥1,999","￥1,000～￥1,999",3.55,-,https://tabelog.com/tokyo/A1307/A130701/13240721/,予約不可,,六本木駅から218m,,,カード可 電子マネー可 QRコード決済可,"35.66142213871681,139.7294022842103",03-3408-6751,東京都港区六本木6-4-1 六本木ヒルズ メトロハット B2F,350,tonkatsu,False,35.66142213871681,139.7294022842103
,かつ精,新宿御苑前駅 165m , とんかつ、食堂,,"￥2,000～￥2,999","￥2,000～￥2,999",3.55,土曜日、日曜日、祝日,https://tabelog.com/tokyo/A1304/A130402/13006682/,予約不可,,丸の内線　新宿御苑駅　徒歩３分 新宿御苑前駅から165m,,,カード不可 電子マネー不可 QRコード決済不可,"35.68997109098009,139.71148568912807",03-3341-5756,東京都新宿区新宿1-18-10 カテリーナ柳通ビル　１Ｆ,224,tonkatsu,False,35.68997109098009,139.71148568912807
,あさや,馬喰町駅 114m , とんかつ,,-,-,3.54,水曜日、日曜日,https://tabelog.com/tokyo/A1302/A130204/13016898/,予約不可,,ＪＲ総武快速線　馬喰町駅　徒歩２分都営地下鉄　馬喰横山駅　徒歩２分都営地下鉄　東日本橋駅　徒歩５分 馬喰町駅から114m,11:00 - 14:30,■ 定休日他不定休,カード不可 電子マネー不可 QRコード決済不可,"35.694109638712646,139.7815693845039",03-3861-9454,東京都千代田区東神田1-14-6 ,610,tonkatsu,False,35.694109638712646,139.7815693845039
,とんかつ 寿々木,東京駅 181m , とんかつ,,"￥2,000～￥2,999","￥2,000～￥2,999",3.54,-,https://tabelog.com/tokyo/A1302/A130201/13155684/,予約不可,,ＪＲ東京駅八重洲北口改札外グランスタ八重北内 東京駅から181m,11:00 - 23:00L.O. 21:30,■ 定休日年中無休(1月1日のみ休み),カード可 （VISA、Master、JCB、AMEX、Diners） 電子マネー可 （交通系電子マネー（Suicaなど）） QRコード決済可,"35.6825576387157,139.76808998439665",03-3284-8305,東京都千代田区丸の内1-9-1 八重北食堂,582,tonkatsu,False,35.6825576387157,139.76808998439665
,とんかつ 椿,成城学園前駅 394m , とんかつ,,"￥2,000～￥2,999","￥2,000～￥2,999",3.54,月曜日,https://tabelog.com/tokyo/A1318/A131814/13002004/,予約可,※予約は大勢様より承ります。※予約時間を15分以上遅れる場合は連絡をお願いいたします。15分たっても連絡がない場合、お待ちのお客様に席を譲る場合もございます。,成城学園前駅から、徒歩5分（0.4km）です。 成城学園前駅から394m,11:30 - 13:30,6/1(土)はお昼間はお休みとなり、17:00〜の営業のみとなります。6/17(月)〜18(火)は連休となります。✢お漬物のテイクアウトはじめました。４種盛りはナスの色が変わりやすいので、その事を了承の上ご注文下さい。また、大根とキュウリの２種盛りもあります。✢テイクアウト受付は、引き渡し時間の20分前までにお願い致します。✢電話でのテイクアウトの事前注文お受け致します。状況により、変更する場合がございますので詳しくは店舗まで電話で確認よろしくお願いいたします。,カード不可 電子マネー不可 QRコード決済不可,"35.64283923868621,139.59628048411594",03-3483-0450,東京都世田谷区成城5-15-3 ,435,tonkatsu,False,35.64283923868621,139.59628048411594
,銀座 梅林 本店,銀座駅 290m , とんかつ、かつ丼、コロッケ,,"￥3,000～￥3,999","￥3,000～￥3,999",3.54,-,https://tabelog.com/tokyo/A1301/A130101/13261638/,予約不可,,銀座駅から290m,,,カード可 （VISA、Master、JCB） 電子マネー可 （交通系電子マネー（Suicaなど）、iD、QUICPay） QRコード決済不可,"35.66956823872222,139.76267208426927",03-3571-0350,東京都中央区銀座7-8-1 銀座梅林ビル B1F,400,tonkatsu,False,35.66956823872222,139.76267208426927
,晴のちカツ,東銀座駅 220m , とんかつ,,"￥2,000～￥2,999","￥2,000～￥2,999",3.54,火曜日,https://tabelog.com/tokyo/A1301/A130101/13262308/,予約不可,,東銀座駅から220m,,,カード不可 電子マネー不可 QRコード決済不可,"35.67021013872402,139.7695646842709",03-3543-1322,東京都中央区銀座3-14-7 ,263,tonkatsu,False,35.67021013872402,139.7695646842709
,洋食や”B”,池尻大橋駅 591m , 洋食、コロッケ、とんかつ,,"￥1,000～￥1,999","￥1,000～￥1,999",3.54,日曜日,https://tabelog.com/tokyo/A1317/A131705/13011023/,予約不可,,東急田園都市線「池尻大橋駅」南口から徒歩８分 池尻大橋駅から591m,11:30 - 14:00,[月~金]ランチ:11:30〜14:00 LO13:30[月~金・土]ディナー:18:30〜22:30,カード不可 電子マネー不可 QRコード決済不可,"35.64740863870982,139.67952788410372",不明の為情報お待ちしております,東京都世田谷区池尻2-10-10 谷マンション 1F,182,tonkatsu,False,35.64740863870982,139.67952788410372
,あけぼの,有楽町駅 90m , とんかつ、かつ丼、食堂,,"￥1,000～￥1,999","￥1,000～￥1,999",3.53,日曜日、祝日,https://tabelog.com/tokyo/A1301/A130102/13000129/,予約不可,,JR山手線・京浜東北線「有楽町」駅(中央口改札or京橋口)から徒歩3分東京メトロ有楽町線「有楽町」駅(D8出口)から直結 有楽町駅から90m,,,カード不可 電子マネー不可 QRコード決済不可,"35.67516693871919,139.76424748432473",03-3211-3934,東京都千代田区有楽町2-10-1 東京交通会館 B1F,1689,tonkatsu,False,35.67516693871919,139.76424748432473
,とんかつ繁,有楽町駅 176m , とんかつ,,"￥1,000～￥1,999","￥1,000～￥1,999",3.53,土曜日、日曜日、祝日,https://tabelog.com/tokyo/A1301/A130102/13000230/,予約不可,,有楽町駅徒歩5分有楽町駅から東京国際フォーラムと高架線の間の細道を東京駅方向へ。 有楽町駅から176m,,,カード不可 電子マネー不可 QRコード決済不可,"35.67627153871856,139.76452138433567",03-3231-4885,東京都千代田区丸の内3-6-10 ,385,tonkatsu,False,35.67627153871856,139.76452138433567
