awards,name,station,genre,pr,dinner_budget,lunch_budget,rating,holiday,url,reserve_status,reserve_method,transportation,opening_time,extra_holiday_info,payment_methods,geo_coordinates,telephone,address,num_review,type,visited,latitude,longitude
The Tabelog Award 2024 Silver 受賞店,かぶと,池袋駅 462m , うなぎ,,"￥15,000～￥19,999","￥15,000～￥19,999",4.43,-,https://tabelog.com/tokyo/A1305/A130501/13016660/,完全予約制,,池袋駅西口を出て劇場通りを川越街道方面に進み郵便局を目指す。最初の道を左折しすぐ右手。 池袋駅から462m,,,カード不可 電子マネー不可 QRコード決済不可,"35.73375503866438,139.7090324849552",03-3983-8608,東京都豊島区池袋2-53-2 池袋ESビル 1F,1120,unagi,False,35.73375503866438,139.7090324849552
The Tabelog Award 2024 Bronze 受賞店,うなぎ 魚政,四ツ木駅 61m , うなぎ,紀州備長炭を使い、うなぎの旨みを逃がさず香ばしく焼き上げます。店主が吟味した鰻を是非どうぞ,"￥10,000～￥14,999","￥10,000～￥14,999",4.26,火曜日、水曜日,https://tabelog.com/tokyo/A1324/A132403/13035339/,完全予約制,※ご予約はweb予約のみとなり、お電話での予約は受け付けておりません。詳しくは公式ホームページをご覧下さい。(web予約が出来ないお客様は13:30又は20:00にご来店頂き、お代金を現金でお預かりさせて頂くご予約方法も御座います) ,京成押上線「四ツ木駅」下車　徒歩1分 四ツ木駅から61m,11:30 - 14:00L.O. 料理12:30 ドリンク13:00,■※ディナーの部の御飲食時間はご予約時間より2時間を目安とさせて頂いております。,カード可 （VISA、Master、JCB、AMEX、Diners） 電子マネー不可 QRコード決済不可,"35.732086253470854,139.83555483502838",03-3695-5222,東京都葛飾区東四ツ木4-14-4 ,907,unagi,False,35.732086253470854,139.83555483502838
The Tabelog Award 2024 Bronze 受賞店,活鰻の店 つぐみ庵,駒込駅 478m , うなぎ、焼き鳥,,"￥15,000～￥19,999","￥15,000～￥19,999",4.25,月曜日,https://tabelog.com/tokyo/A1323/A132301/13080463/,完全予約制,,JR 駒込駅東口　徒歩7分 駒込駅から478m,12:00 - 14:00,■ 定休日月に1度日曜日休日（不定）,カード不可 電子マネー不可 QRコード決済不可,"35.73790863867566,139.75274888496654",03-3823-4591,東京都北区中里1-29-1 ,197,unagi,False,35.73790863867566,139.75274888496654
食べログ うなぎ 百名店 2024 選出店,参宮橋 あさや,参宮橋駅 39m , うなぎ,,"￥30,000～￥39,999","￥30,000～￥39,999",3.89,-,https://tabelog.com/tokyo/A1318/A131810/13289291/,予約可,,参宮橋駅徒歩1分 参宮橋駅から39m,,,カード可 電子マネー可 QRコード決済不可,"35.67851603869447,139.69334828440824",不明の為情報お待ちしております,東京都渋谷区代々木4-6-5 A&U 1F,124,unagi,False,35.67851603869447,139.69334828440824
食べログ うなぎ 百名店 2024 選出店,鰻家,東長崎駅 243m , うなぎ,,"￥6,000～￥7,999","￥6,000～￥7,999",3.88,金曜日,https://tabelog.com/tokyo/A1321/A132101/13012445/,予約可,,西武池袋線「東長崎駅」南口から徒歩４分。都営地下鉄大江戸線　落合南長崎駅（Ａ２出口）から徒歩10分 東長崎駅から243m,11:30 - 20:30L.O. 20:00,2024年11月1日より定休日毎週木・金曜日2024年12月1日より営業時間11：30～14:30 (L.O 14:00)17:00～ 20:30 (L.O 20:00),カード不可 電子マネー不可 QRコード決済不可,"35.72805533865948,139.68226278491642",03-3953-0049,東京都豊島区南長崎5-18-17 ,866,unagi,False,35.72805533865948,139.68226278491642
食べログ うなぎ 百名店 2024 選出店,わたべ,春日駅 251m , うなぎ、海鮮、日本料理,,"￥6,000～￥7,999","￥6,000～￥7,999",3.84,水曜日、木曜日,https://tabelog.com/tokyo/A1310/A131003/13042184/,予約可,夜のご予約の際、うなぎを蒸してから焼いておりますので、少々お時間がかかります。お急ぎの方はご予約の際にうなぎの注文も併せてご予約ください。,都営三田線「春日駅」Ａ５出口より徒歩1分都営地下鉄大江戸線「春日駅」Ａ５出口より徒歩１分東京メトロ南北線「後楽園」８番出口より徒歩３分東京メトロ丸の内線「後楽園」駅徒歩５分 春日駅から251m,,,カード可 （VISA、Master） 電子マネー不可 QRコード決済可 （PayPay）,"35.71131903869233,139.7520742846984",03-3812-7448,東京都文京区小石川1-9-14 アトラスタワー小石川 1Ｆ,453,unagi,False,35.71131903869233,139.7520742846984
食べログ うなぎ 百名店 2024 選出店,うなぎ時任,麻布十番駅 248m , うなぎ、日本料理、フレンチ,世界初のうなぎフレンチ割烹『温故知新を大切に、時流に合わせたNEW STANDARD』,"￥15,000～￥19,999","￥15,000～￥19,999",3.83,,https://tabelog.com/tokyo/A1307/A130702/13224663/,予約可,"アレルギーや苦手な食材は予めお申し付けください。コースは、一斉スタートになりますのでお時間の厳守をお願いします。キャンセルは、３日前よりお料理代金の100％頂戴いたします。お席のみのご予約でも、キャンセル料を頂戴しております（お一人様5,000円）。",都営大江戸線/東京メトロ南北線「麻布十番駅」4番出口　徒歩7分 麻布十番駅から248m,18:00 - 20:30,■ 営業時間[月]・ディナー 　20:30完全閉店[火～土]・ランチ　　鰻重は売切れ次第終了・ディナー　20:30完全閉店*ランチ、ディナーともにコース一斉スタートになります■ 定休日土用の丑の日,カード可 （VISA、Master、JCB、AMEX、Diners） 電子マネー不可 QRコード決済不可,"35.656229238721345,139.7333145841551",03-6812-9671,東京都港区麻布十番2-5-11 AZABUMAISON201,427,unagi,False,35.656229238721345,139.7333145841551
食べログ うなぎ 百名店 2024 選出店,尾花,南千住駅 332m , うなぎ,本物に拘った正統派うな重,"￥10,000～￥14,999","￥10,000～￥14,999",3.78,月曜日、火曜日,https://tabelog.com/tokyo/A1324/A132401/13003509/,予約不可,,JR常磐線・東京メトロ日比谷線・TX「南千住駅」徒歩4～5分 南千住駅から332m,11:30 - 13:30,■ 営業時間2016年4月1日より、土・日・祝日の営業時間変更いずれもウナギがなくなり次第終了■ 定休日2023年5月10日〜15日 臨時休業,カード不可 電子マネー不可 QRコード決済不可,"35.73162833869371,139.79689108487213",03-3801-4670,東京都荒川区南千住5-33-1 ,1435,unagi,False,35.73162833869371,139.79689108487213
食べログ うなぎ 百名店 2024 選出店,入谷鬼子母神門前のだや,入谷駅 156m , うなぎ、海鮮、日本料理,創業明治元年の調理士会直営店です! 鰻料理人総本家の当主が魅せます『匠の技』をご賞味下さい!,"￥10,000～￥14,999","￥10,000～￥14,999",3.77,,https://tabelog.com/tokyo/A1311/A131104/13152282/,予約可,〇下記①~⑤は「席のみ予約のお客様」への注意事項です①ご予約来店のお客様のサービス品のご注文は承れません。②お客様の人数がお揃いになりませんと、うな重の注文は承れません。(飲み物や一品料理は可)③お席がご用意出き次第のご案内とさせて頂きますので、お待ちいただく場合がございます。④お席のみ予約の方は、コースのご注文は出来ません。⑤2階席は階段での昇り降りとなります、ご注意下さい。,東京メトロ日比谷線「入谷駅」2番出口出て右折2ブロック（徒歩30秒）JR「鶯谷駅」南口徒歩5分言問通り沿い入谷鬼子母神様門前 入谷駅から156m,11:00 - 14:00,■ 営業時間※売切仕舞いもございます※当店は活鰻調理の鮮度を重視して産地直送していますので、“順次売切れ”の「うな重」が都度ございますのでお早めのご来店をお勧め致します。何卒、お客様皆様のご理解をお願い致します。■ 定休日毎週月曜日（祝祭日の場合、翌火曜日休みとなります。）また月に数回不定休日もございます。11月の休業日は11/5（火）11/11（月）11/18（月）11/25(月) です。お客様に措かれましてはご理解の程をお願い申し上げます。,カード可 （VISA、Master、JCB、AMEX、Diners） 電子マネー不可 QRコード決済可 （PayPay）,"35.720286638696514,139.78308288476725",03-3874-1855,東京都台東区下谷2-3-1 ,860,unagi,False,35.720286638696514,139.78308288476725
食べログ うなぎ 百名店 2024 選出店,鰻禅,本所吾妻橋駅 122m , うなぎ,鰻は注文を受けてから割く。ふっくらとした上品な味わいに、技とこだわりが凝縮された下町の名店,-,-,3.75,月曜日、木曜日,https://tabelog.com/tokyo/A1312/A131203/13058979/,予約不可,平日は予約可能（夏は不可の可能性あり）土日は予約不可,・東武伊勢崎線・東京メトロ銀座線「浅草駅」から徒歩7分・都営浅草線「本所吾妻橋駅」A4出口から徒歩1分、A5出口も可 本所吾妻橋駅から122m,11:00 - 16:00,■ 営業時間売り切れて店仕舞いになることあり■ 定休日月曜日・木曜日(月曜に限り、祝祭日の場合営業)■ 補足①：時間について入店後に調理のため（作り置きではないため）、席についてからも待ちます（30分以上？）。一度に調理できる数も限られているため、前の調理次第でさらに時間がかかることもあります。その分、新鮮で臭みもなく、ふわふわの鰻重を堪能できます。■ 補足②：開店前の並び方について開店前に並ぶ場合は、特に並び方にルールもなく、日によって異なります（前の人にそって並べばOKのよう）。並んでいると11時前くらいに女将さんが注文を取りにきます。■ 補足③：満席の場合についてお店で受付し、席の用意ができ次第、携帯に電話連絡するシステム。なお、海外の方は、席の用意ができそうな時間を伝え、その時間に戻ってきてもらうシステム。,カード不可 電子マネー不可 QRコード決済不可,"35.708882381244315,139.80573949064933",03-3624-0475,東京都墨田区吾妻橋3-6-18 ,824,unagi,False,35.708882381244315,139.80573949064933
食べログ うなぎ 百名店 2024 選出店,はし本,江戸川橋駅 284m , うなぎ、どじょう,,"￥6,000～￥7,999","￥6,000～￥7,999",3.75,木曜日,https://tabelog.com/tokyo/A1309/A130905/13018616/,予約可,,江戸川橋駅より徒歩3分。4番出口を右折し石切橋交差点(ローソン)を石切橋方向に行って橋を渡り川沿いの2軒目になります。 江戸川橋駅から284m,11:30 - 14:00,■ 営業時間最後の御注文は19:30,カード可 電子マネー可 QRコード決済不可,"35.709356638688575,139.73634488468963",03-3811-4850,東京都文京区水道2-5-7 ,687,unagi,False,35.709356638688575,139.73634488468963
食べログ うなぎ 百名店 2024 選出店,石ばし,江戸川橋駅 476m , うなぎ,,"￥20,000～￥29,999","￥20,000～￥29,999",3.75,月曜日、日曜日、祝日,https://tabelog.com/tokyo/A1309/A130905/13003531/,予約可,特になし,東京メトロ有楽町線 江戸川橋4番出口より飯田橋方面に進み3つ目の信号を左に入る 江戸川橋駅から476m,11:30 - 14:30L.O. 13:30,■ 定休日土用の丑の日,カード可 （AMEX） 電子マネー不可 QRコード決済不可,"35.709273138689305,139.73846808468727",03-3813-8038,東京都文京区水道2-4-29 ,585,unagi,False,35.709273138689305,139.73846808468727
食べログ うなぎ 百名店 2024 選出店,初小川,浅草（東武・都営・メトロ）駅 278m , うなぎ,,"￥4,000～￥4,999","￥4,000～￥4,999",3.75,-,https://tabelog.com/tokyo/A1311/A131102/13003702/,予約可,1ヶ月以上前の予約は取っていないそうなので、日付を確認してください。,都営浅草線浅草駅から徒歩５分 浅草駅（東武・都営・メトロ）から278m,,,カード不可 電子マネー不可 QRコード決済不可,"35.709755338706856,139.79452858465285",03-3844-2723,東京都台東区雷門2-8-4 ,570,unagi,False,35.709755338706856,139.79452858465285
食べログ 天ぷら 百名店 2023 選出店,天ぷら 福たろう,根津駅 242m , 天ぷら、日本料理、うなぎ,【根津駅3分】完全予約制◆確かな技が光る鮮度が自慢の「天ぷら」は、2種の油を使い分けご提供,"￥15,000～￥19,999","￥15,000～￥19,999",3.74,,https://tabelog.com/tokyo/A1311/A131106/13204299/,完全予約制,食べログでネット予約が出来ない場合は、ホームページからテーブルチェックで承れます。お電話でも承っております。キャンセルポリシー２日前より全額のキャンセル料がかかります,千代田線根津駅1番出口徒歩3分 根津駅から242m,,,カード可 （VISA、Master、JCB、AMEX、Diners） 電子マネー不可 QRコード決済可 （PayPay）,"35.71917163869218,139.7672452847671",03-5834-2955,東京都台東区谷中1-2-17 ,148,unagi,False,35.71917163869218,139.7672452847671
食べログ うなぎ 百名店 2024 選出店,五代目 野田岩 麻布飯倉本店,赤羽橋駅 349m , うなぎ、どじょう,,-,-,3.73,-,https://tabelog.com/tokyo/A1314/A131401/13002789/,予約可,※ご予約はお早めにお願いします。※2名様からご予約を承ります。（2名様のご予約は、別館のテーブル席のみとさせていただきます。）,地下鉄大江戸線赤羽橋駅、又は日比谷線神谷町駅より東京タワー方面へ徒歩5分 赤羽橋駅から349m,11:00 - 14:30,■ 定休日日曜日、月曜日不定休、土用の丑の日、夏期休暇,カード可 （VISA、Master、JCB、AMEX、Diners） 電子マネー不可 QRコード決済不可,"35.658122938723366,139.74337078416718",03-3583-7852,東京都港区東麻布1-5-4 ,1268,unagi,False,35.658122938723366,139.74337078416718
食べログ うなぎ 百名店 2024 選出店,日本橋いづもや,新日本橋駅 298m , うなぎ、日本料理、丼,,"￥15,000～￥19,999","￥15,000～￥19,999",3.73,日曜日、祝日,https://tabelog.com/tokyo/A1302/A130202/13011198/,予約可,お座敷をご利用の場合はお電話で事前にご予約ください。※仮予約は受け付けておりません。お日にち、ご人数様、お料理（コース等）がはっきり決まりました段階でご予約くださいますようお願い申し上げます。（これまでもお部屋を予約後、直前にキャンセルという事例が少なくありません。そのため本来でしたらお入りいただけるお客様を何度もお断りした経験がございます。ご理解ご協力を宜しくお願い致します。）,銀座線　三越前駅A８出口より徒歩３分。半蔵門線　三越前駅B１出口より徒歩３分。総武快速線　新日本橋駅２番出口より徒歩３分。JR山手線・中央線・京浜東北線　神田駅南口より徒歩７分。 新日本橋駅から298m,,,カード可 （VISA、Master、JCB、AMEX、Diners） 電子マネー不可 QRコード決済不可,"35.68782073871327,139.77095478444784",03-3241-2476,東京都中央区日本橋本石町3-3-4 ,350,unagi,False,35.68782073871327,139.77095478444784
食べログ うなぎ 百名店 2024 選出店,鰻専門店 愛川,高田馬場駅 368m , うなぎ、海鮮、日本料理,ふっくらとした関東風、パリッとした関西風――。あなたはどちらの“鰻”を選びますか？,"￥6,000～￥7,999","￥6,000～￥7,999",3.72,,https://tabelog.com/tokyo/A1305/A130503/13029734/,予約可,予約専用番号050-1720-8227●お席はテーブル、または掘りごたつです。ご指定出来ません。●鰻重のご注文も同時に伺います。予めメニューをご確認ください。●美味しい鰻を召し上がって頂くために、出来る限りご予約の時間通り、皆様お揃いで御来店ください。●連絡なく予約時間を過ぎた場合、お待ちのお客様を先にお通しすることがあります。予約内容の変更については、早めのご連絡をお願いします。,JR・西武新宿線「高田馬場駅」より歩７分東京メトロ東西線「高田馬場駅」7番口より歩2分 高田馬場駅から368m,11:00 - 14:30L.O. 料理13:30,■ 営業時間[木～月]11:00～L.O 13:3017:00～L.O 19:30売り切れ次第終了の為、お早めのご来店をお勧め致します。■ 定休日火・水曜日(臨時休業有り),カード可 （VISA、Master、JCB、AMEX、Diners） 電子マネー不可 QRコード決済可 （PayPay）,"35.71134273867815,139.70755968472986",03-3200-3717,東京都新宿区高田馬場1-17-22 ,1130,unagi,False,35.71134273867815,139.70755968472986
食べログ うなぎ 百名店 2024 選出店,明神下 神田川 本店,御茶ノ水駅 357m , うなぎ,,"￥15,000～￥19,999","￥15,000～￥19,999",3.72,月曜日、日曜日、祝日,https://tabelog.com/tokyo/A1310/A131002/13000346/,予約可,,地下鉄銀座線・末広町駅より蔵前橋通りを西に。妻恋坂交差点を左に曲がり、神田明神方面へ歩いて８分程度。ＪＲ御茶ノ水駅聖橋口出て左へ聖橋（ひじりばし）を渡り、湯島聖堂交差点を右に。神田明神入口の天野屋の前を通り、神田明神下交差点を左に。黒い塀の古い建物。徒歩9分程度。 御茶ノ水駅から357m,,,カード可 （VISA、Master） 電子マネー不可 QRコード決済不可,"35.70037153870468,139.76898278457597",03-3251-5031,東京都千代田区外神田2-5-11 ,430,unagi,False,35.70037153870468,139.76898278457597
食べログ うなぎ 百名店 2024 選出店,炭焼 うな富士 有楽町店,内幸町駅 276m , うなぎ、海鮮、レストラン,【新橋駅徒歩3分】名古屋の人気うなぎ店が東京初進出。日比谷OKUROJIにOPEN！！,"￥5,000～￥5,999","￥5,000～￥5,999",3.71,,https://tabelog.com/tokyo/A1301/A130103/13250032/,予約可,,JR 有楽町駅 日比谷口徒歩6分JR 新橋駅 銀座口徒歩4分東京メトロ銀座線 新橋駅7番出口 徒歩6分東京メトロ日比谷線 銀座駅 または　日比谷駅東京メトロ千代田線　日比谷駅東京メトロ三田線　日比谷駅　または　内幸町駅東京メトロ有楽町線　有楽町駅 内幸町駅から276m,11:00 - 22:00L.O. 21:00,■ 営業時間尚、2021年10月1日～10月17日までは、11:00~21:00の通し営業■ 定休日日比谷OKUROJIに準ずる,カード可 （VISA、Master、JCB、AMEX、Diners） 電子マネー可 （交通系電子マネー（Suicaなど）） QRコード決済可 （PayPay）,"35.66977435579601,139.75881879912384",03-6457-9688,東京都千代田区内幸町1-7-1 H12,1683,unagi,False,35.66977435579601,139.75881879912384
,銀座すがの,新橋駅 342m , 鳥料理、うなぎ、日本料理,玉鋼で焼き上げる鴨と至高の四季の味覚 素材の一点だけを抽出した唯一無二の日本料理,"￥50,000～￥59,999","￥50,000～￥59,999",3.71,日曜日,https://tabelog.com/tokyo/A1301/A130103/13269851/,完全予約制,ご予約は『OMAKASE』サイトより承ります。ご予約をキャンセルされた場合、いかなる理由であっても下記の料金を頂戴いたします。前日、当日: 100%7日前　50%,新橋駅　徒歩5分銀座駅　徒歩10分 新橋駅から342m,11:30 - 14:00,2024年11月より定休日（火）（水）,カード可 電子マネー不可 QRコード決済不可,"35.668400938722485,139.76112478425856",050-3627-6180,東京都中央区銀座8-7-7 JUNO銀座誠和ビル 3F,135,unagi,False,35.668400938722485,139.76112478425856
,三宅輝,六本木駅 301m , 日本料理、うなぎ、海鮮,農林水産省より“日本食普及の親善大使”に任命された“三宅輝”,"￥30,000～￥39,999","￥30,000～￥39,999",3.7,,https://tabelog.com/tokyo/A1307/A130701/13247307/,完全予約制,早い時間帯のご来店時間につきましては、お客様のご希望を承りますので、どうぞお気兼ねなくお問い合わせくださいませ。,東京メトロ日比谷線「六本木駅」から徒歩５分都営大江戸線「六本木駅」から徒歩10分 六本木駅から301m,17:00 - 22:30L.O. 22:00,■ 営業時間17:00~22:30(最終入店 20:00）LO 22:00土曜日のみ12:00〜14:00(LO 13:45)■ 定休日日曜・祝日（年末年始、お盆、GW）,カード可 （VISA、Master、JCB、AMEX、Diners） 電子マネー不可 QRコード決済不可,"35.66325213871727,139.7344852842252",03-6812-9969,東京都港区六本木3-8-12 六本木JTビル 1F,207,unagi,False,35.66325213871727,139.7344852842252
食べログ うなぎ 百名店 2024 選出店,銀座 四代目 高橋屋 銀座店,東銀座駅 107m , うなぎ、日本料理,,"￥8,000～￥9,999","￥8,000～￥9,999",3.7,,https://tabelog.com/tokyo/A1301/A130101/13262334/,予約可,"ご予約 無しでも お気軽に！ミシュラン  ガイド  東京 セレクテッド レストラン満席の場合、携帯番号をお伝えください。◆オススメ◆うな丼御膳. 5,000円割きたて重御膳. 8,000円（人気料理）※ うなぎは「青うなぎ使用」※ 米は「ハザ掛け米 使用」※ 三井財閥「 料亭・松の茶屋 」と「 銀座・小十 」をベースにした うなぎ料理店。",銀座駅徒歩 4分.東銀座駅徒歩 1分.歌舞伎座楽屋口隣歌舞伎座 駐車場すぐ. 東銀座駅から107m,11:30 - 16:00L.O. 料理15:00 ドリンク15:30,■ 定休日毎週月曜日第ニ、月曜日・火曜日、第三、月曜日・火曜日、,カード可 （VISA、Master、JCB、AMEX、Diners） 電子マネー不可 QRコード決済不可,"35.67018363792547,139.76793524538203",03-3547-0021,東京都中央区銀座4-12-1 ＶＯＲＴ銀座イーストⅡビル 4F,204,unagi,False,35.67018363792547,139.76793524538203
食べログ うなぎ 百名店 2024 選出店,山の茶屋,赤坂見附駅 297m , うなぎ,,"￥15,000～￥19,999","￥15,000～￥19,999",3.7,日曜日、祝日,https://tabelog.com/tokyo/A1308/A130802/13002739/,完全予約制,完全予約制　【予約受付時間：ＡＭ９：００～ＰＭ２０：００】席、個室、料理の予約はＴＥＬにて店舗へお問い合わせください。,千代田線 国会議事堂前駅（５番出口）徒歩３分銀座線・南北線 溜池山王駅（５番出口）徒歩３分丸の内線 赤坂見附駅（１０番出口）徒歩６分丸の内線 国会議事堂前駅（１番出口）徒歩４分有楽町線・半蔵門線 永田町駅（６番出口）徒歩１０分日比谷高校側の通りに店舗正面入り口があります。 赤坂見附駅から297m,,,カード可 （JCB、AMEX、Diners） 電子マネー不可 QRコード決済可 （d払い）,"35.675323638711355,139.74003888434328",03-3581-0585,東京都千代田区永田町2-10-6 ,185,unagi,False,35.675323638711355,139.74003888434328
食べログ うなぎ 百名店 2024 選出店,小満津,東高円寺駅 303m , うなぎ,,"￥10,000～￥14,999","￥10,000～￥14,999",3.7,月曜日,https://tabelog.com/tokyo/A1319/A131904/13001079/,完全予約制,前日までに要予約,地下鉄東高円寺駅徒歩5分 東高円寺駅から303m,,,カード可 （AMEX） 電子マネー不可,"35.69732143867236,139.66142758462058",080-8734-1091,東京都杉並区和田3-62-3 １Ｆ,100,unagi,False,35.69732143867236,139.66142758462058
食べログ うなぎ 百名店 2024 選出店,神泉いちのや,神泉駅 199m , うなぎ,,"￥10,000～￥14,999","￥10,000～￥14,999",3.69,月曜日,https://tabelog.com/tokyo/A1303/A130301/13004659/,予約可,,京王井の頭線【神泉駅】徒歩３分東京メトロ半蔵門線、東急田園都市線【渋谷駅】徒歩12分ＪＲ山手線【渋谷駅】ハチ公口　徒歩14分 神泉駅から199m,11:30 - 14:00,■ 定休日月曜祝日は営業、その際は翌日火曜休み,カード可 （VISA、Master、JCB、AMEX、Diners） 電子マネー不可 QRコード決済不可,"35.65706603870748,139.6914239841929",03-5459-6862,東京都渋谷区神泉町20-22 神泉ハイツ 1F,610,unagi,False,35.65706603870748,139.6914239841929
食べログ うなぎ 百名店 2024 選出店,うなぎ秋本,麹町駅 62m , うなぎ、日本料理、どじょう,,"￥8,000～￥9,999","￥8,000～￥9,999",3.69,日曜日、祝日,https://tabelog.com/tokyo/A1308/A130803/13000415/,予約可,ご予約はお電話でご連絡下さい。,東京メトロ有楽町線【麹町駅】徒歩１分ＪＲ中央線【四ツ谷駅】徒歩10分東京メトロ丸ノ内線・南北線【四ツ谷駅】徒歩11分 麹町駅から62m,11:30 - 14:30L.O. 14:00,■ 定休日第2土曜日,カード可 （VISA、Master、JCB、AMEX、Diners） 電子マネー不可 QRコード決済不可,"35.68470460843233,139.73748543899666",03-3261-6762,東京都千代田区麹町3-4-4 ,533,unagi,False,35.68470460843233,139.73748543899666
食べログ うなぎ 百名店 2024 選出店,うなぎ 丸富,青物横丁駅 215m , うなぎ、丼、居酒屋,,"￥3,000～￥3,999","￥3,000～￥3,999",3.69,水曜日、日曜日,https://tabelog.com/tokyo/A1315/A131501/13026638/,予約不可,,京浜急行線青物横丁駅徒歩3分 青物横丁駅から215m,,,カード不可 電子マネー不可 QRコード決済不可,"35.610687038753845,139.74453498368723",03-3474-4382,東京都品川区南品川3-6-2 ,442,unagi,False,35.610687038753845,139.74453498368723
,鰻はし本,東京駅 357m , うなぎ、日本料理、丼,,"￥10,000～￥14,999","￥10,000～￥14,999",3.69,日曜日、祝日,https://tabelog.com/tokyo/A1302/A130201/13278450/,,,JR東京駅から徒歩３分日本橋駅から3分 東京駅から357m,11:00 - 14:30L.O. 13:30,"■ 営業時間[土]※第2,４土曜日お昼のみ営業■ 定休日第1,3土曜日・土用丑の日・お盆・年末年始",カード可 （VISA、Master、JCB、AMEX、Diners） 電子マネー可 （交通系電子マネー（Suicaなど）、iD、QUICPay） QRコード決済可 （PayPay）,"35.680303246689434,139.77115229925502",,東京都中央区日本橋3-3-3 いづみやビル 1F,209,unagi,False,35.680303246689434,139.77115229925502
,鈴木,調布駅 162m , うなぎ,,"￥10,000～￥14,999","￥10,000～￥14,999",3.67,-,https://tabelog.com/tokyo/A1326/A132601/13005981/,予約可,,京王線調布駅から徒歩2-3分 調布駅から162m,,,カード可 （VISA、Master、JCB、AMEX、Diners） 電子マネー不可 QRコード決済可 （PayPay、d払い、楽天ペイ、au PAY）,"35.65171013866471,139.54644758424044",050-3177-4055,東京都調布市布田1-50-1 マートルコート調布第３,280,unagi,False,35.65171013866471,139.54644758424044
食べログ うなぎ 百名店 2024 選出店,うなぎ 平八,田園調布駅 60m , うなぎ,,"￥4,000～￥4,999","￥4,000～￥4,999",3.67,月曜日、火曜日,https://tabelog.com/tokyo/A1317/A131704/13017676/,予約可,,田園調布駅1分 田園調布駅から60m,,,カード不可 電子マネー不可 QRコード決済不可,"35.59709483873804,139.66778328360374",03-3722-0198,東京都大田区田園調布2-50-2 ,272,unagi,False,35.59709483873804,139.66778328360374
,川栄,赤羽駅 264m , うなぎ、鳥料理,定休日、営業時間のお知らせ。,"￥4,000～￥4,999","￥4,000～￥4,999",3.66,水曜日、日曜日,https://tabelog.com/tokyo/A1323/A132305/13008753/,予約可,当日ご予約可能でございます。昼:10時30分、夜:16時迄。注意:店内で飲食の際は鰻は1人1枚の注文必須です。　　　　　　　　　　　　　　　　　　　　　　　　　　　　　　　　　　　　　　　　　　　,ＪＲ埼京線・京浜東北線【赤羽駅】東口　徒歩３分東京メトロ南北線、埼玉高速鉄道【赤羽岩淵駅】徒歩６分 赤羽駅から264m,11:30 - 14:00L.O. 13:30,■ 営業時間※当日予約は昼:10時30分、夜:16時迄出前も受付ておりますので、ぜひご利用下さい。エリアにつきましては、お問い合わせ下さい。,カード可 （VISA、Master、JCB、AMEX、Diners） 電子マネー可 （QUICPay） QRコード決済可 （PayPay、d払い、楽天ペイ、au PAY）,"35.7800774386385,139.72019088541526",03-3901-3729,東京都北区赤羽1-19-16 ,777,unagi,False,35.7800774386385,139.72019088541526
,八ツ目や にしむら 目黒店,不動前駅 418m , うなぎ,,"￥4,000～￥4,999","￥4,000～￥4,999",3.66,-,https://tabelog.com/tokyo/A1317/A131710/13018295/,予約不可,,不動前から徒歩１０分 不動前駅から418m,,,カード不可 電子マネー不可 QRコード決済可 （PayPay）,"35.62692583873221,139.70896578387618",03-3713-6548,東京都目黒区下目黒3-13-10 ,550,unagi,False,35.62692583873221,139.70896578387618
,神田きくかわ 日比谷店,日比谷駅 250m , うなぎ、日本料理、海鮮,,"￥5,000～￥5,999","￥5,000～￥5,999",3.66,日曜日,https://tabelog.com/tokyo/A1301/A130102/13000134/,,,都営地下鉄三田線日比谷駅徒歩3分 日比谷駅から250m,,,カード可 （VISA、Master、JCB、AMEX、Diners） 電子マネー不可 QRコード決済不可,"35.676682738717105,139.76074908434248",,東京都千代田区丸の内3-1-1 帝劇ビル B2F,510,unagi,False,35.676682738717105,139.76074908434248
食べログ うなぎ 百名店 2024 選出店,うなぎ 目白ぞろ芽,目白駅 129m , うなぎ,＜目白駅近く＞“幻”の【共水うなぎ提供店】,"￥5,000～￥5,999","￥5,000～￥5,999",3.66,,https://tabelog.com/tokyo/A1305/A130502/13224277/,予約可,,JR山手線「目白駅」より徒歩1分 目白駅から129m,,,カード可 （VISA、Master） 電子マネー不可,"35.721580797103535,139.70639156896206",050-1809-2201,東京都豊島区目白3-3-1 目白スクエアビルB1F ,422,unagi,False,35.721580797103535,139.70639156896206
,龜屋 一睡亭,京成上野駅 186m , うなぎ、日本料理,,"￥5,000～￥5,999","￥5,000～￥5,999",3.66,-,https://tabelog.com/tokyo/A1311/A131101/13003585/,予約可,予約は40名まで,ＪＲ・京成上野駅から中央通りを松坂屋方面に歩いて10分以内下町風俗資料館近くの不忍通りパークサイトビル１Ｆ 京成上野駅から186m,11:30 - 22:00L.O. 21:20,■ 営業時間まん延防止等重点措置期間中21:00（L.O.20:20）■定休日無休,カード可 （VISA、Master、JCB、AMEX、Diners） 電子マネー不可 QRコード決済不可,"35.70997423869985,139.77298648467016",03-3831-0912,東京都台東区上野2-13-2 パークサイドビル　１Ｆ・２Ｆ,356,unagi,False,35.70997423869985,139.77298648467016
,うなぎ 赤坂 勢きね,赤坂駅 570m , うなぎ,,"￥30,000～￥39,999","￥30,000～￥39,999",3.66,-,https://tabelog.com/tokyo/A1307/A130701/13039787/,予約可,,赤坂駅から552m 赤坂駅から570m,,,カード可 （VISA、Master、JCB、AMEX、Diners） 電子マネー不可 QRコード決済不可,"35.66794659497104,139.7326943862408",03-5410-1500,東京都港区赤坂9-1-7 赤坂レジデンシャルホテル　１Ｆ,70,unagi,False,35.66794659497104,139.7326943862408
,竹葉亭 銀座店,銀座駅 166m , うなぎ、天ぷら、どじょう,,"￥4,000～￥4,999","￥4,000～￥4,999",3.65,-,https://tabelog.com/tokyo/A1301/A130101/13002552/,予約不可,,地下鉄銀座駅 A5出口徒歩1分/JR有楽町駅 徒歩6分都営東銀座駅 徒歩4分 銀座駅から166m,11:30 - 15:30L.O. 14:30,■ 定休日第1・3月曜日,カード可 （VISA、Master、JCB、AMEX、Diners） 電子マネー不可 QRコード決済可,"35.67072520090035,139.76531516026753",03-3571-0677,東京都中央区銀座5-8-3 ,777,unagi,False,35.67072520090035,139.76531516026753
,つきじ宮川本廛,築地駅 172m , うなぎ,,"￥8,000～￥9,999","￥8,000～￥9,999",3.65,土曜日,https://tabelog.com/tokyo/A1313/A131301/13002304/,予約可,,東京メトロ日比谷線　築地駅5分 築地駅から172m,,,カード可 （VISA、JCB、AMEX、Diners） 電子マネー不可 QRコード決済不可,"35.669563838725246,139.77213408426258",03-3541-1292,東京都中央区築地1-4-6 宮川本店ビル,474,unagi,False,35.669563838725246,139.77213408426258
,町田 うなぎ流木,町田市 , うなぎ、日本料理、ステーキ,「一鰻入魂」ふっくら大きな青うなぎを備長炭でじっくり手焼きしたこだわりの鰻重をぜひどうぞ,"￥6,000～￥7,999","￥6,000～￥7,999",3.65,,https://tabelog.com/tokyo/A1327/A132701/13218146/,予約可,・メニューが前もってお決まりの方は質問欄に「ご注文内容」「数量」をご記入下さい。・来店時間に合わせたお食事の提供もいたします。希望される方は、ネット予約フォームのご要望欄にご希望のメニューと数量、来店に合わせご提供希望の旨をご記入下さい。,"JR横浜線/淵野辺駅からバス・タクシーで約５分 淵野辺駅から1,559m",11:00 - 14:30L.O. 13:40,※うなぎが売り切れ次第、営業終了時間前にお店を閉めさせていただく場合がございます。ご不便をおかけいたしますがご理解のほどよろしくお願いいたします。■ 店休日※毎週月曜 他 GW・夏季・年末年始休業ございます。詳しくはカレンダーをご確認いただくかお電話にてご確認くださいませ。,カード可 （VISA、Master、JCB、AMEX、Diners） 電子マネー不可 QRコード決済不可,"35.57875933467892,139.40701720670728",042-794-9460,東京都町田市根岸町1008-20 リリーハイツ 1F,128,unagi,False,35.57875933467892,139.40701720670728
,炭焼うな富士 東京ミッドタウン八重洲店,東京駅 233m , うなぎ,【東京駅徒歩2分】名古屋の人気うなぎ店東京ミッドタウン八重洲にOPEN！！,"￥5,000～￥5,999","￥5,000～￥5,999",3.62,,https://tabelog.com/tokyo/A1302/A130201/13279890/,予約可,,JR東京駅 地下直結 東京駅から233m,11:00 - 23:00L.O. 22:00,■ 定休日不定休,カード可 （VISA、Master、JCB、AMEX、Diners） 電子マネー可 （交通系電子マネー（Suicaなど）、iD、QUICPay） QRコード決済可 （PayPay）,"35.67940803871797,139.76893098436426",03-3274-4788,東京都中央区八重洲2-2-1 東京ミッドタウン八重洲 3F,619,unagi,False,35.67940803871797,139.76893098436426
,安斎,荻窪駅 300m , うなぎ,,-,-,3.62,日曜日,https://tabelog.com/tokyo/A1319/A131906/13001105/,予約可,LINE登録しての予約が便利。,荻窪駅南口から徒歩6分 荻窪駅から300m,11:30 - 14:30L.O. 13:30,【定休日】年末年始、その他臨時休業あり,カード可 （VISA、Master、JCB、AMEX、Diners） 電子マネー不可 QRコード決済可 （PayPay）,"35.701850138656454,139.62049928469497",03-3392-7234,東京都杉並区荻窪4-12-16 ,286,unagi,False,35.701850138656454,139.62049928469497
,うな藤,杉並区 , うなぎ、海鮮、天ぷら,,"￥4,000～￥4,999","￥4,000～￥4,999",3.62,,https://tabelog.com/tokyo/A1321/A132105/13001126/,予約可,,"荻窪駅よりバスで10分西武新宿線武蔵関駅よりバスで10分 上井草駅から1,184m",11:00 - 14:00L.O. 13:00,■ 定休日第3木曜日（8月以外）,カード可 （VISA、Master、AMEX、Diners） 電子マネー不可 QRコード決済可 （PayPay）,"35.71528163864084,139.59830118484624",03-3397-9174,東京都杉並区今川4-8-7 グリーンパレス,272,unagi,False,35.71528163864084,139.59830118484624
,一二三本店,松陰神社前駅 142m , うなぎ,,"￥8,000～￥9,999","￥8,000～￥9,999",3.62,-,https://tabelog.com/tokyo/A1317/A131709/13013099/,予約可,予約受付は１ヶ月前から受付,東急世田谷線　松陰神社前駅から徒歩で２分 松陰神社前駅から142m,,,カード不可 電子マネー不可 QRコード決済不可,"35.645220038703535,139.65536268409855",03-3421-2702,東京都世田谷区若林4-24-15 ,201,unagi,False,35.645220038703535,139.65536268409855
,日本料理 珀也,飯田橋駅 339m , 日本料理、かに、うなぎ,"神楽坂の隠れ家で、""日本の旬""を味わう。","￥15,000～￥19,999","￥15,000～￥19,999",3.62,,https://tabelog.com/tokyo/A1309/A130905/13249179/,予約可,コース料理は完全予約制にて承っております。,JR「飯田橋駅」西口より徒歩4分東京メトロ「飯田橋駅」B3出口より徒歩2分都営大江戸線「牛込神楽坂駅」A3出口より徒歩5分◆「神楽坂通り」沿い、「毘沙門天 善國寺」すぐそばにございます。 飯田橋駅から339m,,,カード可 （VISA、Master、JCB、AMEX、Diners） 電子マネー不可 QRコード決済不可,"35.70108523869524,139.74077448460298",03-6265-0132,東京都新宿区神楽坂3-6-22 the room 神楽坂 B1F,126,unagi,False,35.70108523869524,139.74077448460298
,うなぎ料理 よね山,大崎広小路駅 45m , うなぎ、日本料理、弁当,【大崎広小路駅1分】ふわふわの関東風うなぎと種類豊富なお酒をカジュアルに堪能する,"￥3,000～￥3,999","￥3,000～￥3,999",3.61,日曜日、祝日,https://tabelog.com/tokyo/A1316/A131603/13189763/,予約可,ランチタイムのご予約は受け付けておりませんディナータイムは平日17:00〜19:00、土曜日17:00〜18:00までのご入店に限りご予約を承ります(お弁当、お持ち帰りのご注文は常時承ります),"東急池上線 大崎広小路駅より徒歩1分JR五反田駅、大崎駅より徒歩6,7分 大崎広小路駅から45m",11:00 - 14:30L.O. 14:00,■ 営業時間売り切れ次第終了■ 定休日不定休,カード可 （VISA、Master、JCB、AMEX、Diners） 電子マネー可 （交通系電子マネー（Suicaなど）、nanaco、WAON、iD、QUICPay） QRコード決済可 （PayPay）,"35.62233550126736,139.72289184464995",03-6417-3020,東京都品川区大崎4-1-2 ウィン第2五反田ビル 1F,221,unagi,False,35.62233550126736,139.72289184464995
,あかぎ,入谷駅 196m , 居酒屋、あんこう、うなぎ,名物あんこう鍋スタートいたしました。ネット予約意外にも空席ございます、お問い合わせ下さい。,"￥8,000～￥9,999","￥8,000～￥9,999",3.61,,https://tabelog.com/tokyo/A1311/A131104/13157124/,予約可,,東京メトロ日比谷線入谷駅より徒歩2分、ＪＲ山手線鶯谷駅より徒歩5分 入谷駅から196m,12:00 - 14:14L.O. 料理13:45 ドリンク13:15,■ 営業時間お席指定は必ずお店へ必ずご連絡下さいお昼のご予約はコースからです、足りないようでしたらアラカルト注文承っております。ネット予約以外にもお席ございますのでお電話にてお問い合わせ下さいませ。■ 定休日(4月〜9月は日・月),カード可 （VISA、Master、JCB、AMEX、Diners） 電子マネー不可 QRコード決済不可,"35.719120074663735,139.78408665088668",03-5830-7128,東京都台東区北上野2-29-3 メゾン森1F,206,unagi,False,35.719120074663735,139.78408665088668
,高嶋家,小伝馬町駅 377m , うなぎ、鍋、焼き鳥,,"￥6,000～￥7,999","￥6,000～￥7,999",3.61,日曜日、祝日,https://tabelog.com/tokyo/A1302/A130204/13018096/,予約可,,銀座線・半蔵門線　「三越前駅」　[A6]出口　徒歩5分日比谷線・都営浅草線「人形町駅」　[A5]出口　徒歩5分日比谷線「小伝馬町駅」　[3]出口　徒歩5分JR総武快速線「新日本橋駅」　「５」出口右手　徒歩5分 小伝馬町駅から377m,,,カード可 （VISA、Master、JCB、AMEX、Diners） 電子マネー不可 QRコード決済可,"35.687309638715945,139.77832688443752",03-3661-5909,東京都中央区日本橋小舟町11-5 ,199,unagi,False,35.687309638715945,139.77832688443752
,稲毛屋,西日暮里駅 477m , うなぎ、日本料理,,"￥5,000～￥5,999","￥5,000～￥5,999",3.6,水曜日、木曜日,https://tabelog.com/tokyo/A1311/A131105/13024475/,予約可,,JR西日暮里駅より、徒歩約9分 西日暮里駅から477m,,,カード可 （VISA、Master、JCB、AMEX、Diners） 電子マネー不可 QRコード決済不可,"35.730268538683475,139.76203028488283",03-3822-3495,東京都文京区千駄木3-49-4 ,508,unagi,False,35.730268538683475,139.76203028488283
,八べえ,亀戸駅 744m , うなぎ、海鮮、日本料理,伝統技法“五右衛門蒸し”で焼き上げる天然鰻や青うなぎをコースで堪能。お座敷個室は宴会にも,"￥6,000～￥7,999","￥6,000～￥7,999",3.6,,https://tabelog.com/tokyo/A1312/A131202/13056800/,予約可,毎日生きている鰻を店で捌いて、五右衛門蒸しにしてから焼き上げているため、来店後の料理の注文になると1時間以上お待ち頂く事もあります。お席のみでご予約のお客様は、可能な限り事前にお召し上がりになるお重やブランド鰻の種類(お電話頂ければご予約日の仕入れ予定の鰻のご案内も可)とご注文数と鰻の焼き方を御連絡下さい。うなぎラーメンに関してお正月、ゴールデンウイーク、7月と8月、土日はご提供をお休みします,総武中央線　亀戸駅徒歩　11分　　錦糸町駅　徒歩14分 亀戸駅から744m,11:30 - 15:00L.O. 14:00,■ 営業時間ブランド鰻及び天然うなぎのラストオーダーは19:30■ 定休日月に連休あり,カード可 （VISA、Master、JCB、AMEX、Diners） 電子マネー不可 QRコード決済可 （PayPay）,"35.701847494462804,139.82070900654358",03-3682-7327,東京都江東区亀戸3-2-8 斉魯ビル 1F,395,unagi,False,35.701847494462804,139.82070900654358
,川二郎,中野駅 322m , うなぎ、串焼き、居酒屋,,"￥4,000～￥4,999","￥4,000～￥4,999",3.6,日曜日,https://tabelog.com/tokyo/A1319/A131902/13020026/,予約不可,,ＪＲ中央線、東京メトロ東西線【中野駅】北口　徒歩５分 中野駅から322m,,,カード不可 電子マネー不可 QRコード決済不可,"35.70864863866669,139.6662469847316",03-3389-4192,東京都中野区中野5-55-10 ,306,unagi,False,35.70864863866669,139.6662469847316
,魚政,平井駅 172m , うなぎ、日本料理、居酒屋,,"￥3,000～￥3,999","￥3,000～￥3,999",3.6,火曜日,https://tabelog.com/tokyo/A1312/A131202/13106825/,予約可,コースの人数変更は４日前でお願い致します。,JR総武線　平井駅南口から徒歩3分。 平井駅から172m,11:30 - 14:00L.O. 13:30,■ 営業時間宴会等の予約は時間帯相談にて。,カード可 （VISA、Master、JCB、AMEX、Diners） 電子マネー不可,"35.70506003872527,139.84300068457145",03-3636-1787,東京都江戸川区平井3-26-11 ,214,unagi,False,35.70506003872527,139.84300068457145
,うなぎ竹屋,竹橋駅 198m , うなぎ,竹橋駅3分◆静岡県産の鰻を備長炭で丁寧に焼き上げます。コース有り,"￥5,000～￥5,999","￥5,000～￥5,999",3.6,,https://tabelog.com/tokyo/A1302/A130201/13274280/,予約可,お支払いは現金のみとなります（カード使用不可〙ご予約はなるべく前日までにお願い致します上鰻重・特上鰻重または白焼などご注文の場合はレストランへの要望に記載をお願いいたします＊当日注文はご用意できない場合がありますコース料理は夜のみで前日までのご予約となりますお席の指定はできません未就学児のお子様の入店はご遠慮いただいております,東京メトロ東西線 竹橋駅3b出口より徒歩3分東京駅日本橋口より徒歩20分神保町駅より徒歩5分神田駅より徒歩15分首都高神田橋出口より車2分 竹橋駅から198m,11:30 - 14:00,■ 営業時間[月～土]昼　11:30~14:00夜　17:30～20:00(予約制）,カード不可 電子マネー不可 QRコード決済不可,"35.69154893870737,139.75985638449325",03-6811-0211,東京都千代田区神田錦町3-19-4 ACN神田錦町ビル 1F,64,unagi,False,35.69154893870737,139.75985638449325
,神田きくかわ 神田店,神田駅 250m , うなぎ,,-,-,3.59,月曜日,https://tabelog.com/tokyo/A1310/A131002/13000339/,予約不可,FAX：03-3254-3739,東京メトロ銀座線【神田駅】徒歩１分ＪＲ中央線・山手線・京浜東北線【神田駅】徒歩４分都営地下鉄新宿線【岩本町駅】徒歩４分東京メトロ丸ノ内線【淡路町駅】徒歩６分 神田駅から250m,11:00 - 20:25,■ 定休日月曜日（祝日は営業し、翌火曜日代休）,カード可 （VISA、Master、JCB） 電子マネー不可 QRコード決済不可,"35.69441953870904,139.77081348451458",03-3251-1506,東京都千代田区神田須田町1-24-2 ,972,unagi,False,35.69441953870904,139.77081348451458
,新宿うな鐵 はなれ,西武新宿駅 181m , うなぎ、日本料理、どじょう,ご予約はお電話でも受け付けております。,"￥6,000～￥7,999","￥6,000～￥7,999",3.59,,https://tabelog.com/tokyo/A1304/A130401/13239102/,予約可,,JR新宿駅東口から徒歩5分西武新宿線 西武新宿駅から徒歩1分 西武新宿駅から181m,11:00 - 23:30L.O. 23:00,▪️ご予約は、お電話でも受け付けております。■ 定休日なし,カード可 （VISA、Master、JCB、AMEX、Diners） 電子マネー不可 QRコード決済可 （PayPay）,"35.69472173868663,139.70105158456653",03-6233-7878,東京都新宿区歌舞伎町1-22-2 ,556,unagi,False,35.69472173868663,139.70105158456653
,ひょうたん屋 6丁目店,東銀座駅 250m , うなぎ,,"￥5,000～￥5,999","￥5,000～￥5,999",3.59,日曜日、祝日,https://tabelog.com/tokyo/A1301/A130101/13007799/,予約可,,東京メトロ銀座線、日比谷線　銀座駅　徒歩3分東京メトロ、都営浅草線　東銀座駅　徒歩2分 東銀座駅から250m,11:30 - 14:00L.O. 13:45,お盆2024/8/11から8/18まで休み,カード不可 電子マネー不可 QRコード決済不可,"35.66924703872305,139.76463138426465",03-3572-2511,東京都中央区銀座6-12-15 ,538,unagi,False,35.66924703872305,139.76463138426465
,うなぎ　色川,浅草（東武・都営・メトロ）駅 249m , うなぎ,,"￥4,000～￥4,999","￥4,000～￥4,999",3.59,-,https://tabelog.com/tokyo/A1311/A131102/13003697/,予約不可,,都営地下鉄浅草線　浅草駅（Ａ１出口）徒歩１分東京メトロ銀座線、東武伊勢崎線　浅草駅　徒歩３分東京メトロ銀座線　田原町駅　徒歩５分 浅草駅（東武・都営・メトロ）から249m,,,カード不可 電子マネー不可 QRコード決済不可,"35.70929253870736,139.79517608464772",03-3844-1187,東京都台東区雷門2-6-11 ,513,unagi,False,35.70929253870736,139.79517608464772
,うなぎ赤垣,初台駅 122m , うなぎ,,"￥4,000～￥4,999","￥4,000～￥4,999",3.59,-,https://tabelog.com/tokyo/A1318/A131807/13006868/,予約可,,京王新線初台駅中央改札南口徒歩1分 初台駅から122m,,,カード不可 電子マネー不可 QRコード決済不可,"35.680321738691276,139.68693048443097",03-3370-2763,東京都渋谷区初台1-38-11 ,264,unagi,False,35.680321738691276,139.68693048443097
,うなぎ川勢,飯田橋駅 318m , うなぎ、日本料理,飲み放題2名様～！ご注文からじっくり、驚きの柔らかさを楽しむ至極の鰻,"￥10,000～￥14,999","￥10,000～￥14,999",3.59,,https://tabelog.com/tokyo/A1309/A130905/13035338/,予約可,お一人様につき1人前のうな重（もしくは白焼）のご注文をお願いいたします。鰻の蒸しに30分程頂戴しております。昼は40分程前のご予約をお勧めします。ランチのラストオーダーは13：00、ディナーは19：30（閉店21：15）です。ディナータイムの席のみ予約時にはお通し（チャージ料）を頂いています。席のみ予約のお客様へ・・・来店後にコース料理をご注文された場合、お通しを含めた前菜となります。,ＪＲ中央線【飯田橋駅】西口　徒歩４分東京メトロ有楽町線・南北線【飯田橋駅】徒歩５分東京メトロ東西線【飯田橋駅】徒歩７分都営地下鉄大江戸線【飯田橋駅】徒歩８分 飯田橋駅から318m,11:30 - 14:00L.O. 13:00,■ 営業時間ご来店の際は、店舗予約をお願いいたします。［土］10名様より貸切営業可（コース料理ご予約の方に、限らせていただきます）■ 定休日土曜日は、10名様より貸切可能,カード可 （VISA、Master、JCB、AMEX、Diners） 電子マネー不可 QRコード決済可 （PayPay）,"35.69869243869833,139.7457238845753",03-3262-5632,東京都千代田区富士見1-7-5 富士見ヒルズ １Ｆ,233,unagi,False,35.69869243869833,139.7457238845753
,ひょうたん屋 1丁目店,銀座一丁目駅 223m , うなぎ,,"￥3,000～￥3,999","￥3,000～￥3,999",3.58,日曜日、祝日,https://tabelog.com/tokyo/A1301/A130101/13002434/,予約不可,,地下鉄銀座一丁目徒歩三分東銀座徒歩約五分 銀座一丁目駅から223m,11:00 - 13:30,■ 定休日第２第４第５土曜,カード不可 電子マネー不可 QRコード決済不可,"35.67317923872204,139.7692798843011",03-3561-5615,東京都中央区銀座1-13-9 栄楽ビル　１Ｆ,362,unagi,False,35.67317923872204,139.7692798843011
,竹葉亭 本店,築地市場駅 317m , うなぎ、日本料理,,"￥15,000～￥19,999","￥15,000～￥19,999",3.58,日曜日、祝日,https://tabelog.com/tokyo/A1313/A131301/13002338/,予約可,昼の予約は個室、コース料理のみ。,都営線・日比谷線東銀座より昭和通りを新橋方面に歩いて10分程度三井ガーデンホテルプレミア銀座から南に出て、銀座７丁目の陸橋を南に渡り、１ブロック降りてから右折。歩いて３分程度。 築地市場駅から317m,,,カード可 （VISA、Master、JCB、AMEX、Diners） 電子マネー不可 QRコード決済不可,"35.6665075387246,139.7640381842374",03-3542-0789,東京都中央区銀座8-14-7 ,341,unagi,False,35.6665075387246,139.7640381842374
,旬ものと日本酒 とみ笑,荻窪駅 205m , 創作料理、うなぎ、日本酒バー,,"￥3,000～￥3,999","￥3,000～￥3,999",3.58,月曜日、日曜日,https://tabelog.com/tokyo/A1319/A131906/13169655/,予約可,※インターネット予約は終了致しました。今後は電話予約のみとなります。店主一人で営業している日も多い為、お電話も掛け直して頂く可能性もありますのでご了承下さい。お急ぎのお問い合わせでなければ、Instagramのメッセージからでも受け付けております。,荻窪駅北口から徒歩２分♪駅からお店が見えます。 荻窪駅から205m,18:00 - 00:00,■ 営業時間臨時休業もありますので、SNSをチェックお願い致します。,カード不可 電子マネー不可 QRコード決済不可,"35.70472283865517,139.62221278472282",03-3392-7002,東京都杉並区上荻1-4-1 ,76,unagi,False,35.70472283865517,139.62221278472282
,銀座 吉兆,銀座一丁目駅 121m , 日本料理、うなぎ,大人の街、銀座で「世界の名物 日本料理」を,"￥40,000～￥49,999","￥40,000～￥49,999",3.58,-,https://tabelog.com/tokyo/A1301/A130101/13200923/,予約可,※食材によるアレルギーのあるお客様は、予め係にお申し出下さい。※Kindly inform your waiter if you are allergic to certain foods or are observing dietary restrictions.,東京メトロ銀座駅　A13出口　徒歩5分 銀座一丁目駅から121m,11:30 - 15:00L.O. ドリンク14:00,■ 不定休,カード可 （VISA、Master、JCB、AMEX、Diners） 電子マネー不可 QRコード決済不可,"35.673231938721194,139.76670688430343",03-3535-1177,東京都中央区銀座2-6-12 大倉本館 4階,65,unagi,False,35.673231938721194,139.76670688430343
,川勢,荻窪駅 149m , うなぎ,,"￥2,000～￥2,999","￥2,000～￥2,999",3.57,日曜日,https://tabelog.com/tokyo/A1319/A131906/13001104/,予約不可,,荻窪駅北口より徒歩3分荻窪北口駅前通り商店街 荻窪駅から149m,12:00 - 14:00,■ 営業時間売切れ次第終了,カード不可 電子マネー不可 QRコード決済不可,"35.70500813865475,139.62149968472622",03-3392-1177,東京都杉並区上荻1-6-11 ,429,unagi,False,35.70500813865475,139.62149968472622
,うなぎ 久保田,末広町駅 142m , うなぎ、どじょう、海鮮,,-,-,3.57,日曜日、祝日,https://tabelog.com/tokyo/A1311/A131101/13016711/,予約可,,銀座線末広町駅２番出口徒歩２分 末広町駅から142m,,,カード可 （VISA、Master、JCB、AMEX、Diners） 電子マネー不可 QRコード決済不可,"35.703656938703865,139.77297368460637",03-3831-6082,東京都千代田区外神田5-6-9 ,343,unagi,False,35.703656938703865,139.77297368460637
,三好,人形町駅 96m , うなぎ,,"￥8,000～￥9,999","￥8,000～￥9,999",3.57,月曜日、日曜日,https://tabelog.com/tokyo/A1302/A130204/13022072/,予約可,,日比谷線人形町駅から徒歩1分 人形町駅から96m,11:30 - 14:00L.O. 料理13:20,■ 定休日日曜日・月曜日（年末年始）,カード可 （VISA、Master、JCB、AMEX、Diners） 電子マネー不可 QRコード決済不可,"35.685437138718235,139.78177688441616",03-3664-3440,東京都中央区日本橋人形町1-5-6 ナカハタビル　１Ｆ,283,unagi,False,35.685437138718235,139.78177688441616
,藍の家 大井町店,下神明駅 304m , うなぎ、どじょう、鳥料理,,"￥5,000～￥5,999","￥5,000～￥5,999",3.57,水曜日,https://tabelog.com/tokyo/A1317/A131712/13059181/,予約可,,東急大井町線下神明駅より徒歩5分ＪＲ大井町駅より徒歩１０分 下神明駅から304m,11:30 - 13:30L.O. 料理13:15,第2木曜日もお休みいただきます,カード可 （VISA、Master、JCB、AMEX、Diners） 電子マネー不可,"35.60765633875089,139.72920388366737",03-3784-4277,東京都品川区二葉1-17-2 ,77,unagi,False,35.60765633875089,139.72920388366737
,どぜう飯田屋,浅草（つくばＥＸＰ）駅 86m , どじょう、うなぎ、鍋,,"￥6,000～￥7,999","￥6,000～￥7,999",3.56,水曜日,https://tabelog.com/tokyo/A1311/A131102/13003687/,予約可,,つくばエクスプレス「浅草駅」A２出口から徒歩２分。東京メトロ銀座線「田原町駅」３番出口から徒歩６分。東武伊勢崎線「浅草駅」正面出口から11分 浅草駅（つくばＥＸＰ）から86m,11:30 - 21:30L.O. 21:00,■ 定休日水曜日(祝日・浅草のもの日は前後に振替),カード可 （VISA、Master）,"35.7140342387032,139.79157958469816",03-3843-0881,東京都台東区西浅草3-3-2 ,752,unagi,False,35.7140342387032,139.79157958469816
,う成ル,亀戸駅 125m , 居酒屋、うなぎ、焼き鳥,うなぎ串1本339円・馬肉・牡蠣・焼鳥あり〼。宴会予約はＷＥＢ・お電話で,"￥4,000～￥4,999","￥4,000～￥4,999",3.56,,https://tabelog.com/tokyo/A1312/A131202/13232486/,予約可,禁煙（1階）ご希望のお客様はコメントにてお知らせ下さい。席数が限られている為、ご希望に添えない場合もあり、その場合は喫煙可（2階席）へのご案内となります。ご連絡が必要なお客様は加えてコメント願います。◎2名様禁煙　カウンター席となります◎2名様喫煙　テーブル席となります◎4名様用禁煙テーブル1台　屋外こたつテーブル2台　　他は喫煙席となります◎6名様以上は2階席となります,ＪＲ総武線・東武亀戸線『亀戸駅』北口より徒歩3分亀戸駅北口出まして、目の前にバス停・・正面三井住友銀行を右まっすぐ・・ローソン越えて、カラオケビックエコーさんの角路地左・・まっすぐお進み下さい。 亀戸駅から125m,15:30 - 22:55L.O. 料理22:00 ドリンク22:20,■ 定休日月曜日（祝日の際は火曜日）・お盆・年末年始,カード可 （VISA、Master、JCB、AMEX、Diners） 電子マネー不可 QRコード決済可 （PayPay、au PAY）,"35.69883163872414,139.82702088451973",03-5875-3346,東京都江東区亀戸5-11-1 ,368,unagi,False,35.69883163872414,139.82702088451973
,味治,中野駅 284m , うなぎ、串焼き、居酒屋,,"￥6,000～￥7,999","￥6,000～￥7,999",3.56,日曜日,https://tabelog.com/tokyo/A1319/A131902/13059507/,予約可,,ＪＲ中央線、東京メトロ東西線【中野駅】北口　徒歩５分 中野駅から284m,,,カード不可 電子マネー不可 QRコード決済不可,"35.7081551386672,139.66683318472622",03-6677-1990,東京都中野区中野5-57-10 ,366,unagi,False,35.7081551386672,139.66683318472622
,鰻 炭焼 ひつまぶし 美濃金 神田本店,末広町駅 77m , うなぎ、日本料理、丼,末広町駅スグ◆岐阜県伝統の美濃地焼きで提供する鰻専門店◆期間限定 秋のこだわり一品メニュー,"￥5,000～￥5,999","￥5,000～￥5,999",3.56,,https://tabelog.com/tokyo/A1311/A131101/13277621/,予約可,,- 東京メトロ銀座線「末広町」駅 4番出口 徒歩1分- 東京メトロ千代田線湯島駅徒歩 5分- JR「秋葉原駅」 電気街口徒歩7分 末広町駅から77m,,,カード可 （VISA、Master、JCB） 電子マネー可 （交通系電子マネー（Suicaなど）、楽天Edy、WAON、QUICPay） QRコード決済可 （d払い、楽天ペイ、au PAY）,"35.70346833870344,139.77131798460562",03-6806-0328,東京都千代田区外神田6-14-3 VORT末広町2 1F,316,unagi,False,35.70346833870344,139.77131798460562
,大江戸 南青山店,外苑前駅 285m , うなぎ、日本料理,,"￥8,000～￥9,999","￥8,000～￥9,999",3.56,-,https://tabelog.com/tokyo/A1306/A130603/13012964/,予約可,,東京メトロ銀座線【外苑前駅】徒歩４分東京メトロ銀座線・半蔵門線、都営地下鉄大江戸線【青山一丁目駅】徒歩６分 外苑前駅から285m,11:00 - 14:30,■ 定休日無休　（年末年始休みあり）,カード可 （VISA、Master、JCB、AMEX、Diners） 電子マネー不可 QRコード決済不可,"35.67061843870827,139.72091808430915",03-3402-0641,東京都港区南青山2-14-22 ,203,unagi,False,35.67061843870827,139.72091808430915
,小川の魚,八王子駅 471m , 居酒屋、うなぎ、どじょう,,"￥4,000～￥4,999","￥4,000～￥4,999",3.56,-,https://tabelog.com/tokyo/A1329/A132904/13173968/,予約可,,京王線京王八王子駅　徒歩12分JR八王子駅 徒歩10分 八王子駅から471m,17:00 - 22:30L.O. 22:00,祝日営業します。月曜日が祝日の場合、翌日がお休みになります。,カード可 （VISA、Master、JCB、AMEX） 電子マネー可 QRコード決済可 （PayPay、d払い、楽天ペイ）,"35.65903963859312,139.33626278446178",042-649-3317,東京都八王子市横山町8-4 1F,173,unagi,False,35.65903963859312,139.33626278446178
,うなぎ四代目菊川 羽田エアポートガーデン店,羽田空港第３ターミナル（京急）駅 217m , うなぎ、海鮮、天ぷら,うなぎ問屋直営 関西風うなぎの『パリッ・フワッ・トロッ』を 世界の窓口羽田空港で楽しめます。,"￥4,000～￥4,999","￥4,000～￥4,999",3.56,,https://tabelog.com/tokyo/A1315/A131504/13280605/,予約可,ご希望のお時間にご予約が出来ない場合でも入店時間や滞在時間をご調整頂ければご案内できる場合もございます。ぜひお電話にてお問い合わせ下さい。,京急本線エアポート行き 羽田空港第３ターミナル駅（京急）から217m,11:00 - 22:00L.O. 21:00,■ 定休日年中無休（施設の休みに準ずる）,カード可 （VISA、Master、JCB） 電子マネー可 QRコード決済可 （PayPay、d払い、楽天ペイ、au PAY）,"35.544187838802586,139.76495188300123",03-5579-7507,東京都大田区羽田空港2-7-1 羽田エアポートガーデン 1F,108,unagi,False,35.544187838802586,139.76495188300123
,寿々喜,蒲田駅 304m , うなぎ、焼き鳥、どじょう,,"￥3,000～￥3,999","￥3,000～￥3,999",3.55,-,https://tabelog.com/tokyo/A1315/A131503/13050406/,予約可,,東急蒲田駅から、徒歩3分JR蒲田駅（西口）から、徒歩4分 蒲田駅から304m,,,カード不可 電子マネー不可 QRコード決済不可,"35.5619723040914,139.71276119871692",03-3731-5239,東京都大田区西蒲田7-63-2 ,512,unagi,False,35.5619723040914,139.71276119871692
,神田きくかわ 上野毛店,上野毛駅 679m , うなぎ,,-,-,3.55,月曜日,https://tabelog.com/tokyo/A1317/A131715/13003114/,予約可,御席の御利用時間は、90分制となっております。,車、タクシー 上野毛駅から679m,11:30 - 20:30,■ 定休日月曜日(祝日の場合のみ振替休日),カード可 （VISA、JCB、AMEX、Diners） 電子マネー不可 QRコード決済不可,"35.616110738718525,139.64444428381216",03-3705-3737,東京都世田谷区中町4-20-13 ,383,unagi,False,35.616110738718525,139.64444428381216
,いづもや 日本橋三越店,三越前駅 98m , うなぎ,,"￥3,000～￥3,999","￥3,000～￥3,999",3.55,-,https://tabelog.com/tokyo/A1302/A130202/13097085/,予約不可,大串蒲焼き2枚付きうな重、各日限定10食は、10:15から整理券が配られ、予約は承れません。,地下鉄銀座線・半蔵門線　三越前駅からすぐ 三越前駅から98m,10:00 - 19:30L.O. 19:00,■ 定休日1/1(日本橋三越本店に準ずる),カード可 （VISA、Master、JCB、AMEX） 電子マネー可 QRコード決済可,"35.68582483203167,139.7730488227731",03-3274-8628,東京都中央区日本橋室町1-4-1 日本橋三越本店本館 B1F,251,unagi,False,35.68582483203167,139.7730488227731
,いづもや 別館,三越前駅 302m , うなぎ、日本料理,,"￥8,000～￥9,999","￥8,000～￥9,999",3.55,日曜日、祝日,https://tabelog.com/tokyo/A1302/A130202/13040225/,予約可,,東京メトロ銀座線・半蔵門線　三越前駅　徒歩２分ＪＲ総武本線　新日本橋駅　徒歩２分ＪＲ中央線　神田駅　徒歩６分 三越前駅から302m,11:00 - 14:00,■ 営業時間営業時間・定休日は変更となる場合がございますので、ご来店前に店舗にご確認ください。,カード可 （VISA、Master、JCB、AMEX、Diners） 電子マネー不可,"35.68757013871344,139.77098798444527",03-3241-3412,東京都中央区日本橋本石町3-3-2 ,207,unagi,False,35.68757013871344,139.77098798444527
,うなぎ 炙一徹,日比谷駅 172m , うなぎ,,"￥8,000～￥9,999","￥8,000～￥9,999",3.55,月曜日、日曜日,https://tabelog.com/tokyo/A1301/A130102/13002136/,予約可,ランチタイムには一般料理の提供はしません。焼き時間は相当かかりますので。,JR有楽町駅より、徒歩10分足らず。地下鉄丸ノ内線銀座駅C1出口から 徒歩2分 日比谷駅から172m,,,カード可 （VISA、Master、JCB、AMEX、Diners） 電子マネー不可 QRコード決済可,"35.67289953871939,139.7604142843045",03-3501-2550,東京都千代田区有楽町1-2-8 ,176,unagi,False,35.67289953871939,139.7604142843045
,ひつまぶし名古屋備長 丸ビル店,二重橋前駅 209m , うなぎ、日本料理,【東京駅近】東京５店舗目！！本場名古屋の極上のひつまぶしを,"￥5,000～￥5,999","￥5,000～￥5,999",3.55,,https://tabelog.com/tokyo/A1302/A130201/13228980/,予約可,●ランチタイムの営業時間11:00～14:30L.O14:00となっております。予約画面の滞在可能時間と実際の滞在可能時間が異なる場合がございますのでご了承下さい。●ご希望の座席タイプをお選びの上ご予約時に指定をお願いいたします。ネット予約の場合、ご希望の座席タイプが表示されない場合は、他の席タイプをお選びください。,JR各線・新幹線東京駅丸の内南口から徒歩すぐ、丸の内ビルディング内６FJR線東京駅丸の内南口地下改札、東京メトロ丸ノ内線東京駅から地下通路直結東京メトロ東西線・半蔵門線・千代田線大手町駅から徒歩約7分東京メトロ千代田線二重橋前駅、都営三田線大手町駅から行幸通り地下通路経由徒歩約7分 二重橋前駅から209m,11:00 - 14:30L.O. 14:00,■ 定休日丸の内ビルディングに準ずる■年末年始の営業日・営業時間・～12/31(火)　通常営業・1/1(水)　休業・1/2(木)～　通常営業,カード可 （VISA、Master、JCB、AMEX、Diners） 電子マネー可 （交通系電子マネー（Suicaなど）、iD、QUICPay） QRコード決済可 （PayPay、d払い、楽天ペイ、au PAY）,"35.68095183871536,139.76381348438343",03-6259-1667,東京都千代田区丸の内2-4-1 丸ビル 6F,176,unagi,False,35.68095183871536,139.76381348438343
,人形町 梅田,人形町駅 145m , うなぎ,,"￥10,000～￥14,999","￥10,000～￥14,999",3.55,日曜日、祝日,https://tabelog.com/tokyo/A1302/A130204/13003026/,予約可,昼・11時50分迄でサービスメニューのご注文は承っておりません。夜・19時迄のご予約で承っております。,"東京メトロ日比谷線,　都営浅草線 【　人形町駅　】　A5出口より徒歩１分です。 人形町駅から145m",11:00 - 14:30L.O. 13:45,[土]早仕舞いする場合もございます。,カード可 （VISA、Master、JCB、AMEX、Diners） 電子マネー不可,"35.68602943871756,139.78085388442278",03-3661-0160,東京都中央区日本橋人形町3-4-2 ,160,unagi,False,35.68602943871756,139.78085388442278
,吉野,代々木公園駅 508m , うなぎ、焼き鳥、親子丼,,"￥2,000～￥2,999","￥2,000～￥2,999",3.55,日曜日、祝日,https://tabelog.com/tokyo/A1318/A131810/13053778/,予約可,ランチのご予約は不可,東京メトロ千代田線 代々木公園駅 2番出口徒歩6分 代々木公園駅から508m,,,カード不可 電子マネー不可 QRコード決済不可,"35.66504253870285,139.69278308427255",03-3468-8811,東京都渋谷区神山町40-1 鈴井ビル１F,120,unagi,False,35.66504253870285,139.69278308427255
,菊水楼 うな菊 ホテル椿山荘東京店,早稲田（都電）駅 504m , うなぎ,,"￥10,000～￥14,999","￥10,000～￥14,999",3.55,-,https://tabelog.com/tokyo/A1309/A130905/13282730/,予約可,※滞在のお時間はご予約時間から90分を原則とさせていただいております。ご予約時間から到着が遅くなった場合、滞在いただけるお時間が短くなることがございますので、何卒ご了承ください。※ご予約時に料理をお決めいただいた際もご来店時より調理を始めます。 ご提供までに20～30分お時間を頂戴致しますので、ご了承ください。,"【電車でお越しの場合】●東京メトロ 有楽町線「江戸川橋駅」1a出口：徒歩約 10分・1a出口から地上へ出て神田川の橋(江戸川橋)を渡る・約30m先ひとつ目の信号（八百屋の角）を左折・道なり（登り坂）約500m※神田川沿いにございます「冠木門」からお入り頂くことは出来ませんので、ご足労ではございますが、上記経路よりホテル棟正面エントランスからホテル庭園内へお進みください。【お車でお越しの場合】首都高5号線「早稲田ランプ」約5分／首都高5号線「護国寺ランプ」約5分／首都高5号線「東池袋ランプ」約8分※ホテル内に約400台の駐車場がございます。・3,000円以上10,000円未満ご利用　3時間無料・10,000円以上ご利用　6時間無料【ホテル内の経路】1 ホテル棟フロントロビー（3階）から1階へお進みください。2 庭園への入り口から通路へお進みください。3 赤い橋（弁慶橋）を渡り、左へお進みください。4 正面に池がございますので、そちらを左へお進みください。5 右側にございます階段（うな菊の看板がございます）をお進みください。(約50段ほど階段をお進み頂いたところに弊店の門がございます。)※階段以外の経路がございませんので、車椅子、ベビーカーでお越しのお客様は何卒ご容赦ください。 早稲田駅（都電）から504m",11:00 - 14:30,※臨時休業を頂く場合がございますので、何卒ご了承ください。,カード可 （VISA、Master、JCB、AMEX、Diners） 電子マネー可 （交通系電子マネー（Suicaなど）、楽天Edy、nanaco、WAON、iD、QUICPay） QRコード決済可 （PayPay）,"35.71216313868295,139.7243140847264",050-3647-4317,東京都文京区関口2-10-8 ホテル椿山荘東京 庭園,87,unagi,False,35.71216313868295,139.7243140847264
,うなぎの中庄 虎ノ門ヒルズ店,虎ノ門ヒルズ駅 31m , うなぎ、日本料理、海鮮,"【老舗鰻卸問屋直営】関西風の地焼きの""呑めるうなぎ屋""","￥4,000～￥4,999","￥4,000～￥4,999",3.55,,https://tabelog.com/tokyo/A1308/A130802/13291422/,予約可,,東京メトロ日比谷線　虎ノ門ヒルズ駅徒歩3分 虎ノ門ヒルズ駅から31m,,,カード可 （VISA、Master、JCB、AMEX、Diners） 電子マネー可 （交通系電子マネー（Suicaなど）、楽天Edy、nanaco、WAON、iD、QUICPay） QRコード決済可 （PayPay、d払い、楽天ペイ、au PAY）,"35.66747662572381,139.74747984661434",03-6206-6151,東京都港区虎ノ門2-6-1 虎ノ門ヒルズステーションタワー 4F,75,unagi,False,35.66747662572381,139.74747984661434
,おひつ膳 田んぼ 代々木本店,南新宿駅 166m , 日本料理、おにぎり、うなぎ,,"￥2,000～￥2,999","￥2,000～￥2,999",3.54,-,https://tabelog.com/tokyo/A1304/A130403/13000681/,予約不可,,ＪＲ中央線・山手線【代々木駅】西口　徒歩３分都営地下鉄大江戸線【代々木駅】徒歩３分小田急小田原線【南新宿駅】徒歩３分 南新宿駅から166m,,,カード不可 電子マネー不可 QRコード決済可,"35.68239653869409,139.69988068444286",03-3320-0727,東京都渋谷区代々木1-41-9 DMK代々木ビル 1F,725,unagi,False,35.68239653869409,139.69988068444286
,新宿うな鐵　恵比寿店,恵比寿駅 130m , うなぎ、日本料理、どじょう,熟練の職人が一本一本心を込めて焼き上げる鰻料理の数々。頭から尻尾まで鰻を味わい尽くす贅沢を,"￥6,000～￥7,999","￥6,000～￥7,999",3.54,,https://tabelog.com/tokyo/A1303/A130302/13203474/,予約可,,JR　山手線、埼京線、湘南新宿ライン東京メトロ　日比谷線『恵比寿駅　西口』より徒歩2分 恵比寿駅から130m,11:00 - 22:30L.O. 22:00,■ 営業時間営業時間11:00～22:30（中休みなし）電話受付11:00 ~ 23:00当日予約はお電話にて承っております。ネット予約では席指定でのご案内が出来ないため、お席の希望がある場合にはお電話にてご相談下さい。皆様のご来店、心よりお待ち申し上げております。■ 定休日年末年始,カード可 （VISA、Master、JCB、AMEX、Diners） 電子マネー不可 QRコード決済可 （PayPay）,"35.64614843871998,139.70890608407038",03-6412-8556,東京都渋谷区恵比寿南1-4-7 シエルブルー恵比寿南１階,634,unagi,False,35.64614843871998,139.70890608407038
,うなぎ本丸,御成門駅 305m , うなぎ,,-,-,3.54,,https://tabelog.com/tokyo/A1314/A131401/13022349/,予約可,,電車でお越しの方は都営三田線　御成門駅徒歩５分　営団日比谷線　神谷町駅徒歩10分お車でお越しの方は首都高速芝公園出口を出て日比谷通りに入り左折します。1.0㎞ほど進むと芝郵便局前（交差点）がありますので左折します。その後１０m進みすぐに右折していただくと当店がございます。 御成門駅から305m,,,カード可 （VISA、Master、JCB、AMEX、Diners） 電子マネー可 （交通系電子マネー（Suicaなど）、楽天Edy、nanaco、WAON、iD） QRコード決済可 （PayPay、d払い、au PAY）,"35.66336473872273,139.7518515842142",03-3432-2564,東京都港区西新橋3-19-12 ,366,unagi,False,35.66336473872273,139.7518515842142
,野田岩 日本橋高島屋特別食堂,日本橋駅 182m , うなぎ,,"￥8,000～￥9,999","￥8,000～￥9,999",3.54,-,https://tabelog.com/tokyo/A1302/A130202/13000131/,予約可,席の予約ができるのは平日午後5時以降の時間帯。土日祝日は予約不可。,日本橋駅から182m,11:00 - 21:30L.O. 20:00,■ 定休日不定休（高島屋に準ずる）,カード可 （Diners） 電子マネー可 QRコード決済可,"35.68054736648103,139.77451005551333",03-3211-4111,東京都中央区日本橋2-4-1 日本橋タカシマヤ 8F,263,unagi,False,35.68054736648103,139.77451005551333
,宇な米,四谷三丁目駅 185m , うなぎ,,"￥6,000～￥7,999","￥6,000～￥7,999",3.54,木曜日,https://tabelog.com/tokyo/A1309/A130903/13012038/,予約可,,四谷三丁目駅から185m,11:30 - 13:30,■ 定休日第2・4水曜日,カード不可 電子マネー不可 QRコード決済不可,"35.68870553869726,139.72244898449077",03-3351-0405,東京都新宿区荒木町2 前田ビル 1F,96,unagi,False,35.68870553869726,139.72244898449077
,うなぎと炭やき いちまる,千歳船橋駅 210m , うなぎ、焼き鳥、串焼き,,"￥5,000～￥5,999","￥5,000～￥5,999",3.54,月曜日、火曜日,https://tabelog.com/tokyo/A1318/A131813/13084012/,予約可,,小田急線千歳船橋駅徒歩3分 千歳船橋駅から210m,,,カード可 （AMEX） 電子マネー可 （交通系電子マネー（Suicaなど）） QRコード決済不可,"35.64757673869143,139.62206108414568",03-3420-3724,東京都世田谷区船橋1-29-10 ,64,unagi,False,35.64757673869143,139.62206108414568
,宮川本廛 赤坂宮川,赤坂駅 128m , うなぎ、日本料理,赤坂で伝統の味を守り信頼され続けて7０年余り白木と竹の清々しい純和風空間で満ち足りた一時を,"￥4,000～￥4,999","￥4,000～￥4,999",3.53,,https://tabelog.com/tokyo/A1308/A130801/13007865/,予約可,※サービス料として10％を申し受けます。※確認のお電話をさせていただく場合がございます。※変更・キャンセルがある場合は、必ず事前にお電話でご連絡ください。※事前のご連絡無く30分以上過ぎても予約時間にお越しいただけない場合はキャンセル扱いとさせていただきます。,地下鉄千代田線赤坂駅7番出口 徒歩1分 赤坂駅から128m,11:30 - 14:30L.O. 14:00,■定休日　月曜日,カード可 （VISA、Master、JCB、AMEX、Diners） 電子マネー不可 QRコード決済不可,"35.67137263871236,139.73527008430668",03-3583-3136,東京都港区赤坂5-4-13 ホワイト赤坂ビル　1F,366,unagi,False,35.67137263871236,139.73527008430668
,うなぎ四代目菊川 東京駅黒塀横丁店,東京駅 157m , うなぎ、日本料理,【東京駅B1F】老舗卸問屋が運営する「うなぎ四代目菊川」,"￥5,000～￥5,999","￥5,000～￥5,999",3.53,,https://tabelog.com/tokyo/A1302/A130201/13269285/,予約可,,JR全線/東京メトロ【1F】八重洲北口改札を出て左手側へ進み、地下へ降りるエスカレーターでB1Fへ。エスカレーター降りたら再び左手側へ進んでいただくと当店左手側に見えてまいります。【B1F】グランスタ地下北口改札を出て右手側へ1分ほど進むと、左手側に黒い壁で「黒塀横丁」と書かれた看板をくぐっていただくと正面に当店見えてまいります。 東京駅から157m,11:00 - 23:00L.O. 21:30,■ 定休日年中無休（元旦のみ休業）,カード可 （VISA、Master、JCB、AMEX、Diners） 電子マネー可 （交通系電子マネー（Suicaなど）、楽天Edy、nanaco、WAON、iD、QUICPay） QRコード決済可 （PayPay、d払い、楽天ペイ、au PAY）,"35.68234393871582,139.76801218439456",03-6812-2121,東京都千代田区丸の内1-9-1 JR東日本東京駅 B1F,247,unagi,False,35.68234393871582,139.76801218439456
,うなぎ高瀬,小宮駅 197m , うなぎ,,-,-,3.53,水曜日、木曜日,https://tabelog.com/tokyo/A1329/A132904/13010820/,予約可,,国道20号「石川入口」交差点より昭島方面へ3Km。多摩大橋より南へ1km。JR八高線小宮駅徒歩2分。 小宮駅から197m,,,カード不可 電子マネー不可 QRコード決済可 （PayPay）,"35.68507253858757,139.37073108470062",0426-46-7762,東京都八王子市小宮町1112-4 ,235,unagi,False,35.68507253858757,139.37073108470062
,うなぎ青葉,新富町駅 279m , うなぎ,,"￥8,000～￥9,999","￥8,000～￥9,999",3.53,日曜日,https://tabelog.com/tokyo/A1313/A131301/13025344/,予約可,夜の予約は、１８時３０分ご来店までとなります。予約のお客様は、お時間変更及びキャンセルの場合、必ずお電話でご連絡頂きますようお願い致します。予約の時間を過ぎますとキャンセル扱いとなります。お昼は時間帯によっては、お受け出来ない場合がございます。,東京メトロ有楽町線新富町駅徒歩５分 新富町駅から279m,11:30 - 14:00L.O. 13:30,土曜、祝日は、不定休となります。夜　17:15〜19:30おつまみ、夜のおつまみL.O20:00メイン料理L.O21:30閉店最終入店時間は、昼１３時２５分、夜１９時５０分となります。営業日に関しましては、Instagramよりご確認お願い致します。,カード可 （VISA、Master、JCB、AMEX、Diners） 電子マネー可 （交通系電子マネー（Suicaなど）、iD、QUICPay） QRコード決済不可,"35.67298893872345,139.77331198429636",03-5541-3633,東京都中央区新富1-5-5 ,188,unagi,False,35.67298893872345,139.77331198429636
