awards,name,station,genre,pr,dinner_budget,lunch_budget,rating,holiday,url,reserve_status,reserve_method,transportation,opening_time,extra_holiday_info,payment_methods,geo_coordinates,telephone,address,num_review,type,visited,latitude,longitude,broad_genre
The Tabelog Award 2024 Silver 受賞店,かぶと,池袋駅 462m , うなぎ,,"￥15,000～￥19,999","￥15,000～￥19,999",4.43,-,https://tabelog.com/tokyo/A1305/A130501/13016660/,完全予約制,,池袋駅西口を出て劇場通りを川越街道方面に進み郵便局を目指す。最初の道を左折しすぐ右手。 池袋駅から462m,,,カード不可 電子マネー不可 QRコード決済不可,"35.73375503866438,139.7090324849552",03-3983-8608,東京都豊島区池袋2-53-2 池袋ESビル 1F,1120,unagi,False,35.73375503866438,139.7090324849552,unagi
The Tabelog Award 2024 Bronze 受賞店,うなぎ 魚政,四ツ木駅 61m , うなぎ,紀州備長炭を使い、うなぎの旨みを逃がさず香ばしく焼き上げます。店主が吟味した鰻を是非どうぞ,"￥10,000～￥14,999","￥10,000～￥14,999",4.26,火曜日、水曜日,https://tabelog.com/tokyo/A1324/A132403/13035339/,完全予約制,※ご予約はweb予約のみとなり、お電話での予約は受け付けておりません。詳しくは公式ホームページをご覧下さい。(web予約が出来ないお客様は13:30又は20:00にご来店頂き、お代金を現金でお預かりさせて頂くご予約方法も御座います) ,京成押上線「四ツ木駅」下車　徒歩1分 四ツ木駅から61m,11:30 - 14:00L.O. 料理12:30 ドリンク13:00,■※ディナーの部の御飲食時間はご予約時間より2時間を目安とさせて頂いております。,カード可 （VISA、Master、JCB、AMEX、Diners） 電子マネー不可 QRコード決済不可,"35.732086253470854,139.83555483502838",03-3695-5222,東京都葛飾区東四ツ木4-14-4 ,907,unagi,False,35.732086253470854,139.83555483502838,unagi
The Tabelog Award 2024 Bronze 受賞店,活鰻の店 つぐみ庵,駒込駅 478m , うなぎ、焼き鳥,,"￥15,000～￥19,999","￥15,000～￥19,999",4.25,月曜日,https://tabelog.com/tokyo/A1323/A132301/13080463/,完全予約制,,JR 駒込駅東口　徒歩7分 駒込駅から478m,12:00 - 14:00,■ 定休日月に1度日曜日休日（不定）,カード不可 電子マネー不可 QRコード決済不可,"35.73790863867566,139.75274888496654",03-3823-4591,東京都北区中里1-29-1 ,197,unagi,False,35.73790863867566,139.75274888496654,unagi
食べログ うなぎ 百名店 2024 選出店,参宮橋 あさや,参宮橋駅 39m , うなぎ,,"￥30,000～￥39,999","￥30,000～￥39,999",3.89,-,https://tabelog.com/tokyo/A1318/A131810/13289291/,予約可,,参宮橋駅徒歩1分 参宮橋駅から39m,,,カード可 電子マネー可 QRコード決済不可,"35.67851603869447,139.69334828440824",不明の為情報お待ちしております,東京都渋谷区代々木4-6-5 A&U 1F,124,unagi,False,35.67851603869447,139.69334828440824,unagi
食べログ うなぎ 百名店 2024 選出店,鰻家,東長崎駅 243m , うなぎ,,"￥6,000～￥7,999","￥6,000～￥7,999",3.88,金曜日,https://tabelog.com/tokyo/A1321/A132101/13012445/,予約可,,西武池袋線「東長崎駅」南口から徒歩４分。都営地下鉄大江戸線　落合南長崎駅（Ａ２出口）から徒歩10分 東長崎駅から243m,11:30 - 20:30L.O. 20:00,2024年11月1日より定休日毎週木・金曜日2024年12月1日より営業時間11：30～14:30 (L.O 14:00)17:00～ 20:30 (L.O 20:00),カード不可 電子マネー不可 QRコード決済不可,"35.72805533865948,139.68226278491642",03-3953-0049,東京都豊島区南長崎5-18-17 ,866,unagi,False,35.72805533865948,139.68226278491642,unagi
食べログ うなぎ 百名店 2024 選出店,わたべ,春日駅 251m , うなぎ、海鮮、日本料理,,"￥6,000～￥7,999","￥6,000～￥7,999",3.84,水曜日、木曜日,https://tabelog.com/tokyo/A1310/A131003/13042184/,予約可,夜のご予約の際、うなぎを蒸してから焼いておりますので、少々お時間がかかります。お急ぎの方はご予約の際にうなぎの注文も併せてご予約ください。,都営三田線「春日駅」Ａ５出口より徒歩1分都営地下鉄大江戸線「春日駅」Ａ５出口より徒歩１分東京メトロ南北線「後楽園」８番出口より徒歩３分東京メトロ丸の内線「後楽園」駅徒歩５分 春日駅から251m,,,カード可 （VISA、Master） 電子マネー不可 QRコード決済可 （PayPay）,"35.71131903869233,139.7520742846984",03-3812-7448,東京都文京区小石川1-9-14 アトラスタワー小石川 1Ｆ,453,unagi,False,35.71131903869233,139.7520742846984,unagi
食べログ うなぎ 百名店 2024 選出店,うなぎ時任,麻布十番駅 248m , うなぎ、日本料理、フレンチ,世界初のうなぎフレンチ割烹『温故知新を大切に、時流に合わせたNEW STANDARD』,"￥15,000～￥19,999","￥15,000～￥19,999",3.83,,https://tabelog.com/tokyo/A1307/A130702/13224663/,予約可,"アレルギーや苦手な食材は予めお申し付けください。コースは、一斉スタートになりますのでお時間の厳守をお願いします。キャンセルは、３日前よりお料理代金の100％頂戴いたします。お席のみのご予約でも、キャンセル料を頂戴しております（お一人様5,000円）。",都営大江戸線/東京メトロ南北線「麻布十番駅」4番出口　徒歩7分 麻布十番駅から248m,18:00 - 20:30,■ 営業時間[月]・ディナー 　20:30完全閉店[火～土]・ランチ　　鰻重は売切れ次第終了・ディナー　20:30完全閉店*ランチ、ディナーともにコース一斉スタートになります■ 定休日土用の丑の日,カード可 （VISA、Master、JCB、AMEX、Diners） 電子マネー不可 QRコード決済不可,"35.656229238721345,139.7333145841551",03-6812-9671,東京都港区麻布十番2-5-11 AZABUMAISON201,427,unagi,False,35.656229238721345,139.7333145841551,unagi
食べログ うなぎ 百名店 2024 選出店,尾花,南千住駅 332m , うなぎ,本物に拘った正統派うな重,"￥10,000～￥14,999","￥10,000～￥14,999",3.78,月曜日、火曜日,https://tabelog.com/tokyo/A1324/A132401/13003509/,予約不可,,JR常磐線・東京メトロ日比谷線・TX「南千住駅」徒歩4～5分 南千住駅から332m,11:30 - 13:30,■ 営業時間2016年4月1日より、土・日・祝日の営業時間変更いずれもウナギがなくなり次第終了■ 定休日2023年5月10日〜15日 臨時休業,カード不可 電子マネー不可 QRコード決済不可,"35.73162833869371,139.79689108487213",03-3801-4670,東京都荒川区南千住5-33-1 ,1435,unagi,False,35.73162833869371,139.79689108487213,unagi
食べログ うなぎ 百名店 2024 選出店,入谷鬼子母神門前のだや,入谷駅 156m , うなぎ、海鮮、日本料理,創業明治元年の調理士会直営店です! 鰻料理人総本家の当主が魅せます『匠の技』をご賞味下さい!,"￥10,000～￥14,999","￥10,000～￥14,999",3.77,,https://tabelog.com/tokyo/A1311/A131104/13152282/,予約可,〇下記①~⑤は「席のみ予約のお客様」への注意事項です①ご予約来店のお客様のサービス品のご注文は承れません。②お客様の人数がお揃いになりませんと、うな重の注文は承れません。(飲み物や一品料理は可)③お席がご用意出き次第のご案内とさせて頂きますので、お待ちいただく場合がございます。④お席のみ予約の方は、コースのご注文は出来ません。⑤2階席は階段での昇り降りとなります、ご注意下さい。,東京メトロ日比谷線「入谷駅」2番出口出て右折2ブロック（徒歩30秒）JR「鶯谷駅」南口徒歩5分言問通り沿い入谷鬼子母神様門前 入谷駅から156m,11:00 - 14:00,■ 営業時間※売切仕舞いもございます※当店は活鰻調理の鮮度を重視して産地直送していますので、“順次売切れ”の「うな重」が都度ございますのでお早めのご来店をお勧め致します。何卒、お客様皆様のご理解をお願い致します。■ 定休日毎週月曜日（祝祭日の場合、翌火曜日休みとなります。）また月に数回不定休日もございます。11月の休業日は11/5（火）11/11（月）11/18（月）11/25(月) です。お客様に措かれましてはご理解の程をお願い申し上げます。,カード可 （VISA、Master、JCB、AMEX、Diners） 電子マネー不可 QRコード決済可 （PayPay）,"35.720286638696514,139.78308288476725",03-3874-1855,東京都台東区下谷2-3-1 ,860,unagi,False,35.720286638696514,139.78308288476725,unagi
食べログ うなぎ 百名店 2024 選出店,鰻禅,本所吾妻橋駅 122m , うなぎ,鰻は注文を受けてから割く。ふっくらとした上品な味わいに、技とこだわりが凝縮された下町の名店,-,-,3.75,月曜日、木曜日,https://tabelog.com/tokyo/A1312/A131203/13058979/,予約不可,平日は予約可能（夏は不可の可能性あり）土日は予約不可,・東武伊勢崎線・東京メトロ銀座線「浅草駅」から徒歩7分・都営浅草線「本所吾妻橋駅」A4出口から徒歩1分、A5出口も可 本所吾妻橋駅から122m,11:00 - 16:00,■ 営業時間売り切れて店仕舞いになることあり■ 定休日月曜日・木曜日(月曜に限り、祝祭日の場合営業)■ 補足①：時間について入店後に調理のため（作り置きではないため）、席についてからも待ちます（30分以上？）。一度に調理できる数も限られているため、前の調理次第でさらに時間がかかることもあります。その分、新鮮で臭みもなく、ふわふわの鰻重を堪能できます。■ 補足②：開店前の並び方について開店前に並ぶ場合は、特に並び方にルールもなく、日によって異なります（前の人にそって並べばOKのよう）。並んでいると11時前くらいに女将さんが注文を取りにきます。■ 補足③：満席の場合についてお店で受付し、席の用意ができ次第、携帯に電話連絡するシステム。なお、海外の方は、席の用意ができそうな時間を伝え、その時間に戻ってきてもらうシステム。,カード不可 電子マネー不可 QRコード決済不可,"35.708882381244315,139.80573949064933",03-3624-0475,東京都墨田区吾妻橋3-6-18 ,824,unagi,False,35.708882381244315,139.80573949064933,unagi
食べログ うなぎ 百名店 2024 選出店,はし本,江戸川橋駅 284m , うなぎ、どじょう,,"￥6,000～￥7,999","￥6,000～￥7,999",3.75,木曜日,https://tabelog.com/tokyo/A1309/A130905/13018616/,予約可,,江戸川橋駅より徒歩3分。4番出口を右折し石切橋交差点(ローソン)を石切橋方向に行って橋を渡り川沿いの2軒目になります。 江戸川橋駅から284m,11:30 - 14:00,■ 営業時間最後の御注文は19:30,カード可 電子マネー可 QRコード決済不可,"35.709356638688575,139.73634488468963",03-3811-4850,東京都文京区水道2-5-7 ,687,unagi,False,35.709356638688575,139.73634488468963,unagi
食べログ うなぎ 百名店 2024 選出店,石ばし,江戸川橋駅 476m , うなぎ,,"￥20,000～￥29,999","￥20,000～￥29,999",3.75,月曜日、日曜日、祝日,https://tabelog.com/tokyo/A1309/A130905/13003531/,予約可,特になし,東京メトロ有楽町線 江戸川橋4番出口より飯田橋方面に進み3つ目の信号を左に入る 江戸川橋駅から476m,11:30 - 14:30L.O. 13:30,■ 定休日土用の丑の日,カード可 （AMEX） 電子マネー不可 QRコード決済不可,"35.709273138689305,139.73846808468727",03-3813-8038,東京都文京区水道2-4-29 ,585,unagi,False,35.709273138689305,139.73846808468727,unagi
食べログ うなぎ 百名店 2024 選出店,初小川,浅草（東武・都営・メトロ）駅 278m , うなぎ,,"￥4,000～￥4,999","￥4,000～￥4,999",3.75,-,https://tabelog.com/tokyo/A1311/A131102/13003702/,予約可,1ヶ月以上前の予約は取っていないそうなので、日付を確認してください。,都営浅草線浅草駅から徒歩５分 浅草駅（東武・都営・メトロ）から278m,,,カード不可 電子マネー不可 QRコード決済不可,"35.709755338706856,139.79452858465285",03-3844-2723,東京都台東区雷門2-8-4 ,570,unagi,False,35.709755338706856,139.79452858465285,unagi
食べログ 天ぷら 百名店 2023 選出店,天ぷら 福たろう,根津駅 242m , 天ぷら、日本料理、うなぎ,【根津駅3分】完全予約制◆確かな技が光る鮮度が自慢の「天ぷら」は、2種の油を使い分けご提供,"￥15,000～￥19,999","￥15,000～￥19,999",3.74,,https://tabelog.com/tokyo/A1311/A131106/13204299/,完全予約制,食べログでネット予約が出来ない場合は、ホームページからテーブルチェックで承れます。お電話でも承っております。キャンセルポリシー２日前より全額のキャンセル料がかかります,千代田線根津駅1番出口徒歩3分 根津駅から242m,,,カード可 （VISA、Master、JCB、AMEX、Diners） 電子マネー不可 QRコード決済可 （PayPay）,"35.71917163869218,139.7672452847671",03-5834-2955,東京都台東区谷中1-2-17 ,148,unagi,False,35.71917163869218,139.7672452847671,unagi
食べログ うなぎ 百名店 2024 選出店,五代目 野田岩 麻布飯倉本店,赤羽橋駅 349m , うなぎ、どじょう,,-,-,3.73,-,https://tabelog.com/tokyo/A1314/A131401/13002789/,予約可,※ご予約はお早めにお願いします。※2名様からご予約を承ります。（2名様のご予約は、別館のテーブル席のみとさせていただきます。）,地下鉄大江戸線赤羽橋駅、又は日比谷線神谷町駅より東京タワー方面へ徒歩5分 赤羽橋駅から349m,11:00 - 14:30,■ 定休日日曜日、月曜日不定休、土用の丑の日、夏期休暇,カード可 （VISA、Master、JCB、AMEX、Diners） 電子マネー不可 QRコード決済不可,"35.658122938723366,139.74337078416718",03-3583-7852,東京都港区東麻布1-5-4 ,1268,unagi,False,35.658122938723366,139.74337078416718,unagi
食べログ うなぎ 百名店 2024 選出店,日本橋いづもや,新日本橋駅 298m , うなぎ、日本料理、丼,,"￥15,000～￥19,999","￥15,000～￥19,999",3.73,日曜日、祝日,https://tabelog.com/tokyo/A1302/A130202/13011198/,予約可,お座敷をご利用の場合はお電話で事前にご予約ください。※仮予約は受け付けておりません。お日にち、ご人数様、お料理（コース等）がはっきり決まりました段階でご予約くださいますようお願い申し上げます。（これまでもお部屋を予約後、直前にキャンセルという事例が少なくありません。そのため本来でしたらお入りいただけるお客様を何度もお断りした経験がございます。ご理解ご協力を宜しくお願い致します。）,銀座線　三越前駅A８出口より徒歩３分。半蔵門線　三越前駅B１出口より徒歩３分。総武快速線　新日本橋駅２番出口より徒歩３分。JR山手線・中央線・京浜東北線　神田駅南口より徒歩７分。 新日本橋駅から298m,,,カード可 （VISA、Master、JCB、AMEX、Diners） 電子マネー不可 QRコード決済不可,"35.68782073871327,139.77095478444784",03-3241-2476,東京都中央区日本橋本石町3-3-4 ,350,unagi,False,35.68782073871327,139.77095478444784,unagi
食べログ うなぎ 百名店 2024 選出店,鰻専門店 愛川,高田馬場駅 368m , うなぎ、海鮮、日本料理,ふっくらとした関東風、パリッとした関西風――。あなたはどちらの“鰻”を選びますか？,"￥6,000～￥7,999","￥6,000～￥7,999",3.72,,https://tabelog.com/tokyo/A1305/A130503/13029734/,予約可,予約専用番号050-1720-8227●お席はテーブル、または掘りごたつです。ご指定出来ません。●鰻重のご注文も同時に伺います。予めメニューをご確認ください。●美味しい鰻を召し上がって頂くために、出来る限りご予約の時間通り、皆様お揃いで御来店ください。●連絡なく予約時間を過ぎた場合、お待ちのお客様を先にお通しすることがあります。予約内容の変更については、早めのご連絡をお願いします。,JR・西武新宿線「高田馬場駅」より歩７分東京メトロ東西線「高田馬場駅」7番口より歩2分 高田馬場駅から368m,11:00 - 14:30L.O. 料理13:30,■ 営業時間[木～月]11:00～L.O 13:3017:00～L.O 19:30売り切れ次第終了の為、お早めのご来店をお勧め致します。■ 定休日火・水曜日(臨時休業有り),カード可 （VISA、Master、JCB、AMEX、Diners） 電子マネー不可 QRコード決済可 （PayPay）,"35.71134273867815,139.70755968472986",03-3200-3717,東京都新宿区高田馬場1-17-22 ,1130,unagi,False,35.71134273867815,139.70755968472986,unagi
食べログ うなぎ 百名店 2024 選出店,明神下 神田川 本店,御茶ノ水駅 357m , うなぎ,,"￥15,000～￥19,999","￥15,000～￥19,999",3.72,月曜日、日曜日、祝日,https://tabelog.com/tokyo/A1310/A131002/13000346/,予約可,,地下鉄銀座線・末広町駅より蔵前橋通りを西に。妻恋坂交差点を左に曲がり、神田明神方面へ歩いて８分程度。ＪＲ御茶ノ水駅聖橋口出て左へ聖橋（ひじりばし）を渡り、湯島聖堂交差点を右に。神田明神入口の天野屋の前を通り、神田明神下交差点を左に。黒い塀の古い建物。徒歩9分程度。 御茶ノ水駅から357m,,,カード可 （VISA、Master） 電子マネー不可 QRコード決済不可,"35.70037153870468,139.76898278457597",03-3251-5031,東京都千代田区外神田2-5-11 ,430,unagi,False,35.70037153870468,139.76898278457597,unagi
食べログ うなぎ 百名店 2024 選出店,炭焼 うな富士 有楽町店,内幸町駅 276m , うなぎ、海鮮、レストラン,【新橋駅徒歩3分】名古屋の人気うなぎ店が東京初進出。日比谷OKUROJIにOPEN！！,"￥5,000～￥5,999","￥5,000～￥5,999",3.71,,https://tabelog.com/tokyo/A1301/A130103/13250032/,予約可,,JR 有楽町駅 日比谷口徒歩6分JR 新橋駅 銀座口徒歩4分東京メトロ銀座線 新橋駅7番出口 徒歩6分東京メトロ日比谷線 銀座駅 または　日比谷駅東京メトロ千代田線　日比谷駅東京メトロ三田線　日比谷駅　または　内幸町駅東京メトロ有楽町線　有楽町駅 内幸町駅から276m,11:00 - 22:00L.O. 21:00,■ 営業時間尚、2021年10月1日～10月17日までは、11:00~21:00の通し営業■ 定休日日比谷OKUROJIに準ずる,カード可 （VISA、Master、JCB、AMEX、Diners） 電子マネー可 （交通系電子マネー（Suicaなど）） QRコード決済可 （PayPay）,"35.66977435579601,139.75881879912384",03-6457-9688,東京都千代田区内幸町1-7-1 H12,1683,unagi,False,35.66977435579601,139.75881879912384,unagi
,銀座すがの,新橋駅 342m , 鳥料理、うなぎ、日本料理,玉鋼で焼き上げる鴨と至高の四季の味覚 素材の一点だけを抽出した唯一無二の日本料理,"￥50,000～￥59,999","￥50,000～￥59,999",3.71,日曜日,https://tabelog.com/tokyo/A1301/A130103/13269851/,完全予約制,ご予約は『OMAKASE』サイトより承ります。ご予約をキャンセルされた場合、いかなる理由であっても下記の料金を頂戴いたします。前日、当日: 100%7日前　50%,新橋駅　徒歩5分銀座駅　徒歩10分 新橋駅から342m,11:30 - 14:00,2024年11月より定休日（火）（水）,カード可 電子マネー不可 QRコード決済不可,"35.668400938722485,139.76112478425856",050-3627-6180,東京都中央区銀座8-7-7 JUNO銀座誠和ビル 3F,135,unagi,False,35.668400938722485,139.76112478425856,unagi
,三宅輝,六本木駅 301m , 日本料理、うなぎ、海鮮,農林水産省より“日本食普及の親善大使”に任命された“三宅輝”,"￥30,000～￥39,999","￥30,000～￥39,999",3.7,,https://tabelog.com/tokyo/A1307/A130701/13247307/,完全予約制,早い時間帯のご来店時間につきましては、お客様のご希望を承りますので、どうぞお気兼ねなくお問い合わせくださいませ。,東京メトロ日比谷線「六本木駅」から徒歩５分都営大江戸線「六本木駅」から徒歩10分 六本木駅から301m,17:00 - 22:30L.O. 22:00,■ 営業時間17:00~22:30(最終入店 20:00）LO 22:00土曜日のみ12:00〜14:00(LO 13:45)■ 定休日日曜・祝日（年末年始、お盆、GW）,カード可 （VISA、Master、JCB、AMEX、Diners） 電子マネー不可 QRコード決済不可,"35.66325213871727,139.7344852842252",03-6812-9969,東京都港区六本木3-8-12 六本木JTビル 1F,207,unagi,False,35.66325213871727,139.7344852842252,unagi
食べログ うなぎ 百名店 2024 選出店,銀座 四代目 高橋屋 銀座店,東銀座駅 107m , うなぎ、日本料理,,"￥8,000～￥9,999","￥8,000～￥9,999",3.7,,https://tabelog.com/tokyo/A1301/A130101/13262334/,予約可,"ご予約 無しでも お気軽に！ミシュラン  ガイド  東京 セレクテッド レストラン満席の場合、携帯番号をお伝えください。◆オススメ◆うな丼御膳. 5,000円割きたて重御膳. 8,000円（人気料理）※ うなぎは「青うなぎ使用」※ 米は「ハザ掛け米 使用」※ 三井財閥「 料亭・松の茶屋 」と「 銀座・小十 」をベースにした うなぎ料理店。",銀座駅徒歩 4分.東銀座駅徒歩 1分.歌舞伎座楽屋口隣歌舞伎座 駐車場すぐ. 東銀座駅から107m,11:30 - 16:00L.O. 料理15:00 ドリンク15:30,■ 定休日毎週月曜日第ニ、月曜日・火曜日、第三、月曜日・火曜日、,カード可 （VISA、Master、JCB、AMEX、Diners） 電子マネー不可 QRコード決済不可,"35.67018363792547,139.76793524538203",03-3547-0021,東京都中央区銀座4-12-1 ＶＯＲＴ銀座イーストⅡビル 4F,204,unagi,False,35.67018363792547,139.76793524538203,unagi
食べログ うなぎ 百名店 2024 選出店,山の茶屋,赤坂見附駅 297m , うなぎ,,"￥15,000～￥19,999","￥15,000～￥19,999",3.7,日曜日、祝日,https://tabelog.com/tokyo/A1308/A130802/13002739/,完全予約制,完全予約制　【予約受付時間：ＡＭ９：００～ＰＭ２０：００】席、個室、料理の予約はＴＥＬにて店舗へお問い合わせください。,千代田線 国会議事堂前駅（５番出口）徒歩３分銀座線・南北線 溜池山王駅（５番出口）徒歩３分丸の内線 赤坂見附駅（１０番出口）徒歩６分丸の内線 国会議事堂前駅（１番出口）徒歩４分有楽町線・半蔵門線 永田町駅（６番出口）徒歩１０分日比谷高校側の通りに店舗正面入り口があります。 赤坂見附駅から297m,,,カード可 （JCB、AMEX、Diners） 電子マネー不可 QRコード決済可 （d払い）,"35.675323638711355,139.74003888434328",03-3581-0585,東京都千代田区永田町2-10-6 ,185,unagi,False,35.675323638711355,139.74003888434328,unagi
食べログ うなぎ 百名店 2024 選出店,小満津,東高円寺駅 303m , うなぎ,,"￥10,000～￥14,999","￥10,000～￥14,999",3.7,月曜日,https://tabelog.com/tokyo/A1319/A131904/13001079/,完全予約制,前日までに要予約,地下鉄東高円寺駅徒歩5分 東高円寺駅から303m,,,カード可 （AMEX） 電子マネー不可,"35.69732143867236,139.66142758462058",080-8734-1091,東京都杉並区和田3-62-3 １Ｆ,100,unagi,False,35.69732143867236,139.66142758462058,unagi
食べログ うなぎ 百名店 2024 選出店,神泉いちのや,神泉駅 199m , うなぎ,,"￥10,000～￥14,999","￥10,000～￥14,999",3.69,月曜日,https://tabelog.com/tokyo/A1303/A130301/13004659/,予約可,,京王井の頭線【神泉駅】徒歩３分東京メトロ半蔵門線、東急田園都市線【渋谷駅】徒歩12分ＪＲ山手線【渋谷駅】ハチ公口　徒歩14分 神泉駅から199m,11:30 - 14:00,■ 定休日月曜祝日は営業、その際は翌日火曜休み,カード可 （VISA、Master、JCB、AMEX、Diners） 電子マネー不可 QRコード決済不可,"35.65706603870748,139.6914239841929",03-5459-6862,東京都渋谷区神泉町20-22 神泉ハイツ 1F,610,unagi,False,35.65706603870748,139.6914239841929,unagi
食べログ うなぎ 百名店 2024 選出店,うなぎ秋本,麹町駅 62m , うなぎ、日本料理、どじょう,,"￥8,000～￥9,999","￥8,000～￥9,999",3.69,日曜日、祝日,https://tabelog.com/tokyo/A1308/A130803/13000415/,予約可,ご予約はお電話でご連絡下さい。,東京メトロ有楽町線【麹町駅】徒歩１分ＪＲ中央線【四ツ谷駅】徒歩10分東京メトロ丸ノ内線・南北線【四ツ谷駅】徒歩11分 麹町駅から62m,11:30 - 14:30L.O. 14:00,■ 定休日第2土曜日,カード可 （VISA、Master、JCB、AMEX、Diners） 電子マネー不可 QRコード決済不可,"35.68470460843233,139.73748543899666",03-3261-6762,東京都千代田区麹町3-4-4 ,533,unagi,False,35.68470460843233,139.73748543899666,unagi
食べログ うなぎ 百名店 2024 選出店,うなぎ 丸富,青物横丁駅 215m , うなぎ、丼、居酒屋,,"￥3,000～￥3,999","￥3,000～￥3,999",3.69,水曜日、日曜日,https://tabelog.com/tokyo/A1315/A131501/13026638/,予約不可,,京浜急行線青物横丁駅徒歩3分 青物横丁駅から215m,,,カード不可 電子マネー不可 QRコード決済不可,"35.610687038753845,139.74453498368723",03-3474-4382,東京都品川区南品川3-6-2 ,442,unagi,False,35.610687038753845,139.74453498368723,unagi
,鰻はし本,東京駅 357m , うなぎ、日本料理、丼,,"￥10,000～￥14,999","￥10,000～￥14,999",3.69,日曜日、祝日,https://tabelog.com/tokyo/A1302/A130201/13278450/,,,JR東京駅から徒歩３分日本橋駅から3分 東京駅から357m,11:00 - 14:30L.O. 13:30,"■ 営業時間[土]※第2,４土曜日お昼のみ営業■ 定休日第1,3土曜日・土用丑の日・お盆・年末年始",カード可 （VISA、Master、JCB、AMEX、Diners） 電子マネー可 （交通系電子マネー（Suicaなど）、iD、QUICPay） QRコード決済可 （PayPay）,"35.680303246689434,139.77115229925502",,東京都中央区日本橋3-3-3 いづみやビル 1F,209,unagi,False,35.680303246689434,139.77115229925502,unagi
,鈴木,調布駅 162m , うなぎ,,"￥10,000～￥14,999","￥10,000～￥14,999",3.67,-,https://tabelog.com/tokyo/A1326/A132601/13005981/,予約可,,京王線調布駅から徒歩2-3分 調布駅から162m,,,カード可 （VISA、Master、JCB、AMEX、Diners） 電子マネー不可 QRコード決済可 （PayPay、d払い、楽天ペイ、au PAY）,"35.65171013866471,139.54644758424044",050-3177-4055,東京都調布市布田1-50-1 マートルコート調布第３,280,unagi,False,35.65171013866471,139.54644758424044,unagi
食べログ うなぎ 百名店 2024 選出店,うなぎ 平八,田園調布駅 60m , うなぎ,,"￥4,000～￥4,999","￥4,000～￥4,999",3.67,月曜日、火曜日,https://tabelog.com/tokyo/A1317/A131704/13017676/,予約可,,田園調布駅1分 田園調布駅から60m,,,カード不可 電子マネー不可 QRコード決済不可,"35.59709483873804,139.66778328360374",03-3722-0198,東京都大田区田園調布2-50-2 ,272,unagi,False,35.59709483873804,139.66778328360374,unagi
,川栄,赤羽駅 264m , うなぎ、鳥料理,定休日、営業時間のお知らせ。,"￥4,000～￥4,999","￥4,000～￥4,999",3.66,水曜日、日曜日,https://tabelog.com/tokyo/A1323/A132305/13008753/,予約可,当日ご予約可能でございます。昼:10時30分、夜:16時迄。注意:店内で飲食の際は鰻は1人1枚の注文必須です。　　　　　　　　　　　　　　　　　　　　　　　　　　　　　　　　　　　　　　　　　　　,ＪＲ埼京線・京浜東北線【赤羽駅】東口　徒歩３分東京メトロ南北線、埼玉高速鉄道【赤羽岩淵駅】徒歩６分 赤羽駅から264m,11:30 - 14:00L.O. 13:30,■ 営業時間※当日予約は昼:10時30分、夜:16時迄出前も受付ておりますので、ぜひご利用下さい。エリアにつきましては、お問い合わせ下さい。,カード可 （VISA、Master、JCB、AMEX、Diners） 電子マネー可 （QUICPay） QRコード決済可 （PayPay、d払い、楽天ペイ、au PAY）,"35.7800774386385,139.72019088541526",03-3901-3729,東京都北区赤羽1-19-16 ,777,unagi,False,35.7800774386385,139.72019088541526,unagi
,八ツ目や にしむら 目黒店,不動前駅 418m , うなぎ,,"￥4,000～￥4,999","￥4,000～￥4,999",3.66,-,https://tabelog.com/tokyo/A1317/A131710/13018295/,予約不可,,不動前から徒歩１０分 不動前駅から418m,,,カード不可 電子マネー不可 QRコード決済可 （PayPay）,"35.62692583873221,139.70896578387618",03-3713-6548,東京都目黒区下目黒3-13-10 ,550,unagi,False,35.62692583873221,139.70896578387618,unagi
,神田きくかわ 日比谷店,日比谷駅 250m , うなぎ、日本料理、海鮮,,"￥5,000～￥5,999","￥5,000～￥5,999",3.66,日曜日,https://tabelog.com/tokyo/A1301/A130102/13000134/,,,都営地下鉄三田線日比谷駅徒歩3分 日比谷駅から250m,,,カード可 （VISA、Master、JCB、AMEX、Diners） 電子マネー不可 QRコード決済不可,"35.676682738717105,139.76074908434248",,東京都千代田区丸の内3-1-1 帝劇ビル B2F,510,unagi,False,35.676682738717105,139.76074908434248,unagi
食べログ うなぎ 百名店 2024 選出店,うなぎ 目白ぞろ芽,目白駅 129m , うなぎ,＜目白駅近く＞“幻”の【共水うなぎ提供店】,"￥5,000～￥5,999","￥5,000～￥5,999",3.66,,https://tabelog.com/tokyo/A1305/A130502/13224277/,予約可,,JR山手線「目白駅」より徒歩1分 目白駅から129m,,,カード可 （VISA、Master） 電子マネー不可,"35.721580797103535,139.70639156896206",050-1809-2201,東京都豊島区目白3-3-1 目白スクエアビルB1F ,422,unagi,False,35.721580797103535,139.70639156896206,unagi
,龜屋 一睡亭,京成上野駅 186m , うなぎ、日本料理,,"￥5,000～￥5,999","￥5,000～￥5,999",3.66,-,https://tabelog.com/tokyo/A1311/A131101/13003585/,予約可,予約は40名まで,ＪＲ・京成上野駅から中央通りを松坂屋方面に歩いて10分以内下町風俗資料館近くの不忍通りパークサイトビル１Ｆ 京成上野駅から186m,11:30 - 22:00L.O. 21:20,■ 営業時間まん延防止等重点措置期間中21:00（L.O.20:20）■定休日無休,カード可 （VISA、Master、JCB、AMEX、Diners） 電子マネー不可 QRコード決済不可,"35.70997423869985,139.77298648467016",03-3831-0912,東京都台東区上野2-13-2 パークサイドビル　１Ｆ・２Ｆ,356,unagi,False,35.70997423869985,139.77298648467016,unagi
,うなぎ 赤坂 勢きね,赤坂駅 570m , うなぎ,,"￥30,000～￥39,999","￥30,000～￥39,999",3.66,-,https://tabelog.com/tokyo/A1307/A130701/13039787/,予約可,,赤坂駅から552m 赤坂駅から570m,,,カード可 （VISA、Master、JCB、AMEX、Diners） 電子マネー不可 QRコード決済不可,"35.66794659497104,139.7326943862408",03-5410-1500,東京都港区赤坂9-1-7 赤坂レジデンシャルホテル　１Ｆ,70,unagi,False,35.66794659497104,139.7326943862408,unagi
,竹葉亭 銀座店,銀座駅 166m , うなぎ、天ぷら、どじょう,,"￥4,000～￥4,999","￥4,000～￥4,999",3.65,-,https://tabelog.com/tokyo/A1301/A130101/13002552/,予約不可,,地下鉄銀座駅 A5出口徒歩1分/JR有楽町駅 徒歩6分都営東銀座駅 徒歩4分 銀座駅から166m,11:30 - 15:30L.O. 14:30,■ 定休日第1・3月曜日,カード可 （VISA、Master、JCB、AMEX、Diners） 電子マネー不可 QRコード決済可,"35.67072520090035,139.76531516026753",03-3571-0677,東京都中央区銀座5-8-3 ,777,unagi,False,35.67072520090035,139.76531516026753,unagi
,つきじ宮川本廛,築地駅 172m , うなぎ,,"￥8,000～￥9,999","￥8,000～￥9,999",3.65,土曜日,https://tabelog.com/tokyo/A1313/A131301/13002304/,予約可,,東京メトロ日比谷線　築地駅5分 築地駅から172m,,,カード可 （VISA、JCB、AMEX、Diners） 電子マネー不可 QRコード決済不可,"35.669563838725246,139.77213408426258",03-3541-1292,東京都中央区築地1-4-6 宮川本店ビル,474,unagi,False,35.669563838725246,139.77213408426258,unagi
,町田 うなぎ流木,町田市 , うなぎ、日本料理、ステーキ,「一鰻入魂」ふっくら大きな青うなぎを備長炭でじっくり手焼きしたこだわりの鰻重をぜひどうぞ,"￥6,000～￥7,999","￥6,000～￥7,999",3.65,,https://tabelog.com/tokyo/A1327/A132701/13218146/,予約可,・メニューが前もってお決まりの方は質問欄に「ご注文内容」「数量」をご記入下さい。・来店時間に合わせたお食事の提供もいたします。希望される方は、ネット予約フォームのご要望欄にご希望のメニューと数量、来店に合わせご提供希望の旨をご記入下さい。,"JR横浜線/淵野辺駅からバス・タクシーで約５分 淵野辺駅から1,559m",11:00 - 14:30L.O. 13:40,※うなぎが売り切れ次第、営業終了時間前にお店を閉めさせていただく場合がございます。ご不便をおかけいたしますがご理解のほどよろしくお願いいたします。■ 店休日※毎週月曜 他 GW・夏季・年末年始休業ございます。詳しくはカレンダーをご確認いただくかお電話にてご確認くださいませ。,カード可 （VISA、Master、JCB、AMEX、Diners） 電子マネー不可 QRコード決済不可,"35.57875933467892,139.40701720670728",042-794-9460,東京都町田市根岸町1008-20 リリーハイツ 1F,128,unagi,False,35.57875933467892,139.40701720670728,unagi
,炭焼うな富士 東京ミッドタウン八重洲店,東京駅 233m , うなぎ,【東京駅徒歩2分】名古屋の人気うなぎ店東京ミッドタウン八重洲にOPEN！！,"￥5,000～￥5,999","￥5,000～￥5,999",3.62,,https://tabelog.com/tokyo/A1302/A130201/13279890/,予約可,,JR東京駅 地下直結 東京駅から233m,11:00 - 23:00L.O. 22:00,■ 定休日不定休,カード可 （VISA、Master、JCB、AMEX、Diners） 電子マネー可 （交通系電子マネー（Suicaなど）、iD、QUICPay） QRコード決済可 （PayPay）,"35.67940803871797,139.76893098436426",03-3274-4788,東京都中央区八重洲2-2-1 東京ミッドタウン八重洲 3F,619,unagi,False,35.67940803871797,139.76893098436426,unagi
,安斎,荻窪駅 300m , うなぎ,,-,-,3.62,日曜日,https://tabelog.com/tokyo/A1319/A131906/13001105/,予約可,LINE登録しての予約が便利。,荻窪駅南口から徒歩6分 荻窪駅から300m,11:30 - 14:30L.O. 13:30,【定休日】年末年始、その他臨時休業あり,カード可 （VISA、Master、JCB、AMEX、Diners） 電子マネー不可 QRコード決済可 （PayPay）,"35.701850138656454,139.62049928469497",03-3392-7234,東京都杉並区荻窪4-12-16 ,286,unagi,False,35.701850138656454,139.62049928469497,unagi
,うな藤,杉並区 , うなぎ、海鮮、天ぷら,,"￥4,000～￥4,999","￥4,000～￥4,999",3.62,,https://tabelog.com/tokyo/A1321/A132105/13001126/,予約可,,"荻窪駅よりバスで10分西武新宿線武蔵関駅よりバスで10分 上井草駅から1,184m",11:00 - 14:00L.O. 13:00,■ 定休日第3木曜日（8月以外）,カード可 （VISA、Master、AMEX、Diners） 電子マネー不可 QRコード決済可 （PayPay）,"35.71528163864084,139.59830118484624",03-3397-9174,東京都杉並区今川4-8-7 グリーンパレス,272,unagi,False,35.71528163864084,139.59830118484624,unagi
,一二三本店,松陰神社前駅 142m , うなぎ,,"￥8,000～￥9,999","￥8,000～￥9,999",3.62,-,https://tabelog.com/tokyo/A1317/A131709/13013099/,予約可,予約受付は１ヶ月前から受付,東急世田谷線　松陰神社前駅から徒歩で２分 松陰神社前駅から142m,,,カード不可 電子マネー不可 QRコード決済不可,"35.645220038703535,139.65536268409855",03-3421-2702,東京都世田谷区若林4-24-15 ,201,unagi,False,35.645220038703535,139.65536268409855,unagi
,日本料理 珀也,飯田橋駅 339m , 日本料理、かに、うなぎ,"神楽坂の隠れ家で、""日本の旬""を味わう。","￥15,000～￥19,999","￥15,000～￥19,999",3.62,,https://tabelog.com/tokyo/A1309/A130905/13249179/,予約可,コース料理は完全予約制にて承っております。,JR「飯田橋駅」西口より徒歩4分東京メトロ「飯田橋駅」B3出口より徒歩2分都営大江戸線「牛込神楽坂駅」A3出口より徒歩5分◆「神楽坂通り」沿い、「毘沙門天 善國寺」すぐそばにございます。 飯田橋駅から339m,,,カード可 （VISA、Master、JCB、AMEX、Diners） 電子マネー不可 QRコード決済不可,"35.70108523869524,139.74077448460298",03-6265-0132,東京都新宿区神楽坂3-6-22 the room 神楽坂 B1F,126,unagi,False,35.70108523869524,139.74077448460298,unagi
,うなぎ料理 よね山,大崎広小路駅 45m , うなぎ、日本料理、弁当,【大崎広小路駅1分】ふわふわの関東風うなぎと種類豊富なお酒をカジュアルに堪能する,"￥3,000～￥3,999","￥3,000～￥3,999",3.61,日曜日、祝日,https://tabelog.com/tokyo/A1316/A131603/13189763/,予約可,ランチタイムのご予約は受け付けておりませんディナータイムは平日17:00〜19:00、土曜日17:00〜18:00までのご入店に限りご予約を承ります(お弁当、お持ち帰りのご注文は常時承ります),"東急池上線 大崎広小路駅より徒歩1分JR五反田駅、大崎駅より徒歩6,7分 大崎広小路駅から45m",11:00 - 14:30L.O. 14:00,■ 営業時間売り切れ次第終了■ 定休日不定休,カード可 （VISA、Master、JCB、AMEX、Diners） 電子マネー可 （交通系電子マネー（Suicaなど）、nanaco、WAON、iD、QUICPay） QRコード決済可 （PayPay）,"35.62233550126736,139.72289184464995",03-6417-3020,東京都品川区大崎4-1-2 ウィン第2五反田ビル 1F,221,unagi,False,35.62233550126736,139.72289184464995,unagi
,あかぎ,入谷駅 196m , 居酒屋、あんこう、うなぎ,名物あんこう鍋スタートいたしました。ネット予約意外にも空席ございます、お問い合わせ下さい。,"￥8,000～￥9,999","￥8,000～￥9,999",3.61,,https://tabelog.com/tokyo/A1311/A131104/13157124/,予約可,,東京メトロ日比谷線入谷駅より徒歩2分、ＪＲ山手線鶯谷駅より徒歩5分 入谷駅から196m,12:00 - 14:14L.O. 料理13:45 ドリンク13:15,■ 営業時間お席指定は必ずお店へ必ずご連絡下さいお昼のご予約はコースからです、足りないようでしたらアラカルト注文承っております。ネット予約以外にもお席ございますのでお電話にてお問い合わせ下さいませ。■ 定休日(4月〜9月は日・月),カード可 （VISA、Master、JCB、AMEX、Diners） 電子マネー不可 QRコード決済不可,"35.719120074663735,139.78408665088668",03-5830-7128,東京都台東区北上野2-29-3 メゾン森1F,206,unagi,False,35.719120074663735,139.78408665088668,unagi
,高嶋家,小伝馬町駅 377m , うなぎ、鍋、焼き鳥,,"￥6,000～￥7,999","￥6,000～￥7,999",3.61,日曜日、祝日,https://tabelog.com/tokyo/A1302/A130204/13018096/,予約可,,銀座線・半蔵門線　「三越前駅」　[A6]出口　徒歩5分日比谷線・都営浅草線「人形町駅」　[A5]出口　徒歩5分日比谷線「小伝馬町駅」　[3]出口　徒歩5分JR総武快速線「新日本橋駅」　「５」出口右手　徒歩5分 小伝馬町駅から377m,,,カード可 （VISA、Master、JCB、AMEX、Diners） 電子マネー不可 QRコード決済可,"35.687309638715945,139.77832688443752",03-3661-5909,東京都中央区日本橋小舟町11-5 ,199,unagi,False,35.687309638715945,139.77832688443752,unagi
,稲毛屋,西日暮里駅 477m , うなぎ、日本料理,,"￥5,000～￥5,999","￥5,000～￥5,999",3.6,水曜日、木曜日,https://tabelog.com/tokyo/A1311/A131105/13024475/,予約可,,JR西日暮里駅より、徒歩約9分 西日暮里駅から477m,,,カード可 （VISA、Master、JCB、AMEX、Diners） 電子マネー不可 QRコード決済不可,"35.730268538683475,139.76203028488283",03-3822-3495,東京都文京区千駄木3-49-4 ,508,unagi,False,35.730268538683475,139.76203028488283,unagi
,八べえ,亀戸駅 744m , うなぎ、海鮮、日本料理,伝統技法“五右衛門蒸し”で焼き上げる天然鰻や青うなぎをコースで堪能。お座敷個室は宴会にも,"￥6,000～￥7,999","￥6,000～￥7,999",3.6,,https://tabelog.com/tokyo/A1312/A131202/13056800/,予約可,毎日生きている鰻を店で捌いて、五右衛門蒸しにしてから焼き上げているため、来店後の料理の注文になると1時間以上お待ち頂く事もあります。お席のみでご予約のお客様は、可能な限り事前にお召し上がりになるお重やブランド鰻の種類(お電話頂ければご予約日の仕入れ予定の鰻のご案内も可)とご注文数と鰻の焼き方を御連絡下さい。うなぎラーメンに関してお正月、ゴールデンウイーク、7月と8月、土日はご提供をお休みします,総武中央線　亀戸駅徒歩　11分　　錦糸町駅　徒歩14分 亀戸駅から744m,11:30 - 15:00L.O. 14:00,■ 営業時間ブランド鰻及び天然うなぎのラストオーダーは19:30■ 定休日月に連休あり,カード可 （VISA、Master、JCB、AMEX、Diners） 電子マネー不可 QRコード決済可 （PayPay）,"35.701847494462804,139.82070900654358",03-3682-7327,東京都江東区亀戸3-2-8 斉魯ビル 1F,395,unagi,False,35.701847494462804,139.82070900654358,unagi
,川二郎,中野駅 322m , うなぎ、串焼き、居酒屋,,"￥4,000～￥4,999","￥4,000～￥4,999",3.6,日曜日,https://tabelog.com/tokyo/A1319/A131902/13020026/,予約不可,,ＪＲ中央線、東京メトロ東西線【中野駅】北口　徒歩５分 中野駅から322m,,,カード不可 電子マネー不可 QRコード決済不可,"35.70864863866669,139.6662469847316",03-3389-4192,東京都中野区中野5-55-10 ,306,unagi,False,35.70864863866669,139.6662469847316,unagi
,魚政,平井駅 172m , うなぎ、日本料理、居酒屋,,"￥3,000～￥3,999","￥3,000～￥3,999",3.6,火曜日,https://tabelog.com/tokyo/A1312/A131202/13106825/,予約可,コースの人数変更は４日前でお願い致します。,JR総武線　平井駅南口から徒歩3分。 平井駅から172m,11:30 - 14:00L.O. 13:30,■ 営業時間宴会等の予約は時間帯相談にて。,カード可 （VISA、Master、JCB、AMEX、Diners） 電子マネー不可,"35.70506003872527,139.84300068457145",03-3636-1787,東京都江戸川区平井3-26-11 ,214,unagi,False,35.70506003872527,139.84300068457145,unagi
,うなぎ竹屋,竹橋駅 198m , うなぎ,竹橋駅3分◆静岡県産の鰻を備長炭で丁寧に焼き上げます。コース有り,"￥5,000～￥5,999","￥5,000～￥5,999",3.6,,https://tabelog.com/tokyo/A1302/A130201/13274280/,予約可,お支払いは現金のみとなります（カード使用不可〙ご予約はなるべく前日までにお願い致します上鰻重・特上鰻重または白焼などご注文の場合はレストランへの要望に記載をお願いいたします＊当日注文はご用意できない場合がありますコース料理は夜のみで前日までのご予約となりますお席の指定はできません未就学児のお子様の入店はご遠慮いただいております,東京メトロ東西線 竹橋駅3b出口より徒歩3分東京駅日本橋口より徒歩20分神保町駅より徒歩5分神田駅より徒歩15分首都高神田橋出口より車2分 竹橋駅から198m,11:30 - 14:00,■ 営業時間[月～土]昼　11:30~14:00夜　17:30～20:00(予約制）,カード不可 電子マネー不可 QRコード決済不可,"35.69154893870737,139.75985638449325",03-6811-0211,東京都千代田区神田錦町3-19-4 ACN神田錦町ビル 1F,64,unagi,False,35.69154893870737,139.75985638449325,unagi
,神田きくかわ 神田店,神田駅 250m , うなぎ,,-,-,3.59,月曜日,https://tabelog.com/tokyo/A1310/A131002/13000339/,予約不可,FAX：03-3254-3739,東京メトロ銀座線【神田駅】徒歩１分ＪＲ中央線・山手線・京浜東北線【神田駅】徒歩４分都営地下鉄新宿線【岩本町駅】徒歩４分東京メトロ丸ノ内線【淡路町駅】徒歩６分 神田駅から250m,11:00 - 20:25,■ 定休日月曜日（祝日は営業し、翌火曜日代休）,カード可 （VISA、Master、JCB） 電子マネー不可 QRコード決済不可,"35.69441953870904,139.77081348451458",03-3251-1506,東京都千代田区神田須田町1-24-2 ,972,unagi,False,35.69441953870904,139.77081348451458,unagi
,新宿うな鐵 はなれ,西武新宿駅 181m , うなぎ、日本料理、どじょう,ご予約はお電話でも受け付けております。,"￥6,000～￥7,999","￥6,000～￥7,999",3.59,,https://tabelog.com/tokyo/A1304/A130401/13239102/,予約可,,JR新宿駅東口から徒歩5分西武新宿線 西武新宿駅から徒歩1分 西武新宿駅から181m,11:00 - 23:30L.O. 23:00,▪️ご予約は、お電話でも受け付けております。■ 定休日なし,カード可 （VISA、Master、JCB、AMEX、Diners） 電子マネー不可 QRコード決済可 （PayPay）,"35.69472173868663,139.70105158456653",03-6233-7878,東京都新宿区歌舞伎町1-22-2 ,556,unagi,False,35.69472173868663,139.70105158456653,unagi
,ひょうたん屋 6丁目店,東銀座駅 250m , うなぎ,,"￥5,000～￥5,999","￥5,000～￥5,999",3.59,日曜日、祝日,https://tabelog.com/tokyo/A1301/A130101/13007799/,予約可,,東京メトロ銀座線、日比谷線　銀座駅　徒歩3分東京メトロ、都営浅草線　東銀座駅　徒歩2分 東銀座駅から250m,11:30 - 14:00L.O. 13:45,お盆2024/8/11から8/18まで休み,カード不可 電子マネー不可 QRコード決済不可,"35.66924703872305,139.76463138426465",03-3572-2511,東京都中央区銀座6-12-15 ,538,unagi,False,35.66924703872305,139.76463138426465,unagi
,うなぎ　色川,浅草（東武・都営・メトロ）駅 249m , うなぎ,,"￥4,000～￥4,999","￥4,000～￥4,999",3.59,-,https://tabelog.com/tokyo/A1311/A131102/13003697/,予約不可,,都営地下鉄浅草線　浅草駅（Ａ１出口）徒歩１分東京メトロ銀座線、東武伊勢崎線　浅草駅　徒歩３分東京メトロ銀座線　田原町駅　徒歩５分 浅草駅（東武・都営・メトロ）から249m,,,カード不可 電子マネー不可 QRコード決済不可,"35.70929253870736,139.79517608464772",03-3844-1187,東京都台東区雷門2-6-11 ,513,unagi,False,35.70929253870736,139.79517608464772,unagi
,うなぎ赤垣,初台駅 122m , うなぎ,,"￥4,000～￥4,999","￥4,000～￥4,999",3.59,-,https://tabelog.com/tokyo/A1318/A131807/13006868/,予約可,,京王新線初台駅中央改札南口徒歩1分 初台駅から122m,,,カード不可 電子マネー不可 QRコード決済不可,"35.680321738691276,139.68693048443097",03-3370-2763,東京都渋谷区初台1-38-11 ,264,unagi,False,35.680321738691276,139.68693048443097,unagi
,うなぎ川勢,飯田橋駅 318m , うなぎ、日本料理,飲み放題2名様～！ご注文からじっくり、驚きの柔らかさを楽しむ至極の鰻,"￥10,000～￥14,999","￥10,000～￥14,999",3.59,,https://tabelog.com/tokyo/A1309/A130905/13035338/,予約可,お一人様につき1人前のうな重（もしくは白焼）のご注文をお願いいたします。鰻の蒸しに30分程頂戴しております。昼は40分程前のご予約をお勧めします。ランチのラストオーダーは13：00、ディナーは19：30（閉店21：15）です。ディナータイムの席のみ予約時にはお通し（チャージ料）を頂いています。席のみ予約のお客様へ・・・来店後にコース料理をご注文された場合、お通しを含めた前菜となります。,ＪＲ中央線【飯田橋駅】西口　徒歩４分東京メトロ有楽町線・南北線【飯田橋駅】徒歩５分東京メトロ東西線【飯田橋駅】徒歩７分都営地下鉄大江戸線【飯田橋駅】徒歩８分 飯田橋駅から318m,11:30 - 14:00L.O. 13:00,■ 営業時間ご来店の際は、店舗予約をお願いいたします。［土］10名様より貸切営業可（コース料理ご予約の方に、限らせていただきます）■ 定休日土曜日は、10名様より貸切可能,カード可 （VISA、Master、JCB、AMEX、Diners） 電子マネー不可 QRコード決済可 （PayPay）,"35.69869243869833,139.7457238845753",03-3262-5632,東京都千代田区富士見1-7-5 富士見ヒルズ １Ｆ,233,unagi,False,35.69869243869833,139.7457238845753,unagi
,ひょうたん屋 1丁目店,銀座一丁目駅 223m , うなぎ,,"￥3,000～￥3,999","￥3,000～￥3,999",3.58,日曜日、祝日,https://tabelog.com/tokyo/A1301/A130101/13002434/,予約不可,,地下鉄銀座一丁目徒歩三分東銀座徒歩約五分 銀座一丁目駅から223m,11:00 - 13:30,■ 定休日第２第４第５土曜,カード不可 電子マネー不可 QRコード決済不可,"35.67317923872204,139.7692798843011",03-3561-5615,東京都中央区銀座1-13-9 栄楽ビル　１Ｆ,362,unagi,False,35.67317923872204,139.7692798843011,unagi
,竹葉亭 本店,築地市場駅 317m , うなぎ、日本料理,,"￥15,000～￥19,999","￥15,000～￥19,999",3.58,日曜日、祝日,https://tabelog.com/tokyo/A1313/A131301/13002338/,予約可,昼の予約は個室、コース料理のみ。,都営線・日比谷線東銀座より昭和通りを新橋方面に歩いて10分程度三井ガーデンホテルプレミア銀座から南に出て、銀座７丁目の陸橋を南に渡り、１ブロック降りてから右折。歩いて３分程度。 築地市場駅から317m,,,カード可 （VISA、Master、JCB、AMEX、Diners） 電子マネー不可 QRコード決済不可,"35.6665075387246,139.7640381842374",03-3542-0789,東京都中央区銀座8-14-7 ,341,unagi,False,35.6665075387246,139.7640381842374,unagi
,旬ものと日本酒 とみ笑,荻窪駅 205m , 創作料理、うなぎ、日本酒バー,,"￥3,000～￥3,999","￥3,000～￥3,999",3.58,月曜日、日曜日,https://tabelog.com/tokyo/A1319/A131906/13169655/,予約可,※インターネット予約は終了致しました。今後は電話予約のみとなります。店主一人で営業している日も多い為、お電話も掛け直して頂く可能性もありますのでご了承下さい。お急ぎのお問い合わせでなければ、Instagramのメッセージからでも受け付けております。,荻窪駅北口から徒歩２分♪駅からお店が見えます。 荻窪駅から205m,18:00 - 00:00,■ 営業時間臨時休業もありますので、SNSをチェックお願い致します。,カード不可 電子マネー不可 QRコード決済不可,"35.70472283865517,139.62221278472282",03-3392-7002,東京都杉並区上荻1-4-1 ,76,unagi,False,35.70472283865517,139.62221278472282,unagi
,銀座 吉兆,銀座一丁目駅 121m , 日本料理、うなぎ,大人の街、銀座で「世界の名物 日本料理」を,"￥40,000～￥49,999","￥40,000～￥49,999",3.58,-,https://tabelog.com/tokyo/A1301/A130101/13200923/,予約可,※食材によるアレルギーのあるお客様は、予め係にお申し出下さい。※Kindly inform your waiter if you are allergic to certain foods or are observing dietary restrictions.,東京メトロ銀座駅　A13出口　徒歩5分 銀座一丁目駅から121m,11:30 - 15:00L.O. ドリンク14:00,■ 不定休,カード可 （VISA、Master、JCB、AMEX、Diners） 電子マネー不可 QRコード決済不可,"35.673231938721194,139.76670688430343",03-3535-1177,東京都中央区銀座2-6-12 大倉本館 4階,65,unagi,False,35.673231938721194,139.76670688430343,unagi
,川勢,荻窪駅 149m , うなぎ,,"￥2,000～￥2,999","￥2,000～￥2,999",3.57,日曜日,https://tabelog.com/tokyo/A1319/A131906/13001104/,予約不可,,荻窪駅北口より徒歩3分荻窪北口駅前通り商店街 荻窪駅から149m,12:00 - 14:00,■ 営業時間売切れ次第終了,カード不可 電子マネー不可 QRコード決済不可,"35.70500813865475,139.62149968472622",03-3392-1177,東京都杉並区上荻1-6-11 ,429,unagi,False,35.70500813865475,139.62149968472622,unagi
,うなぎ 久保田,末広町駅 142m , うなぎ、どじょう、海鮮,,-,-,3.57,日曜日、祝日,https://tabelog.com/tokyo/A1311/A131101/13016711/,予約可,,銀座線末広町駅２番出口徒歩２分 末広町駅から142m,,,カード可 （VISA、Master、JCB、AMEX、Diners） 電子マネー不可 QRコード決済不可,"35.703656938703865,139.77297368460637",03-3831-6082,東京都千代田区外神田5-6-9 ,343,unagi,False,35.703656938703865,139.77297368460637,unagi
,三好,人形町駅 96m , うなぎ,,"￥8,000～￥9,999","￥8,000～￥9,999",3.57,月曜日、日曜日,https://tabelog.com/tokyo/A1302/A130204/13022072/,予約可,,日比谷線人形町駅から徒歩1分 人形町駅から96m,11:30 - 14:00L.O. 料理13:20,■ 定休日日曜日・月曜日（年末年始）,カード可 （VISA、Master、JCB、AMEX、Diners） 電子マネー不可 QRコード決済不可,"35.685437138718235,139.78177688441616",03-3664-3440,東京都中央区日本橋人形町1-5-6 ナカハタビル　１Ｆ,283,unagi,False,35.685437138718235,139.78177688441616,unagi
,藍の家 大井町店,下神明駅 304m , うなぎ、どじょう、鳥料理,,"￥5,000～￥5,999","￥5,000～￥5,999",3.57,水曜日,https://tabelog.com/tokyo/A1317/A131712/13059181/,予約可,,東急大井町線下神明駅より徒歩5分ＪＲ大井町駅より徒歩１０分 下神明駅から304m,11:30 - 13:30L.O. 料理13:15,第2木曜日もお休みいただきます,カード可 （VISA、Master、JCB、AMEX、Diners） 電子マネー不可,"35.60765633875089,139.72920388366737",03-3784-4277,東京都品川区二葉1-17-2 ,77,unagi,False,35.60765633875089,139.72920388366737,unagi
,どぜう飯田屋,浅草（つくばＥＸＰ）駅 86m , どじょう、うなぎ、鍋,,"￥6,000～￥7,999","￥6,000～￥7,999",3.56,水曜日,https://tabelog.com/tokyo/A1311/A131102/13003687/,予約可,,つくばエクスプレス「浅草駅」A２出口から徒歩２分。東京メトロ銀座線「田原町駅」３番出口から徒歩６分。東武伊勢崎線「浅草駅」正面出口から11分 浅草駅（つくばＥＸＰ）から86m,11:30 - 21:30L.O. 21:00,■ 定休日水曜日(祝日・浅草のもの日は前後に振替),カード可 （VISA、Master）,"35.7140342387032,139.79157958469816",03-3843-0881,東京都台東区西浅草3-3-2 ,752,unagi,False,35.7140342387032,139.79157958469816,unagi
,う成ル,亀戸駅 125m , 居酒屋、うなぎ、焼き鳥,うなぎ串1本339円・馬肉・牡蠣・焼鳥あり〼。宴会予約はＷＥＢ・お電話で,"￥4,000～￥4,999","￥4,000～￥4,999",3.56,,https://tabelog.com/tokyo/A1312/A131202/13232486/,予約可,禁煙（1階）ご希望のお客様はコメントにてお知らせ下さい。席数が限られている為、ご希望に添えない場合もあり、その場合は喫煙可（2階席）へのご案内となります。ご連絡が必要なお客様は加えてコメント願います。◎2名様禁煙　カウンター席となります◎2名様喫煙　テーブル席となります◎4名様用禁煙テーブル1台　屋外こたつテーブル2台　　他は喫煙席となります◎6名様以上は2階席となります,ＪＲ総武線・東武亀戸線『亀戸駅』北口より徒歩3分亀戸駅北口出まして、目の前にバス停・・正面三井住友銀行を右まっすぐ・・ローソン越えて、カラオケビックエコーさんの角路地左・・まっすぐお進み下さい。 亀戸駅から125m,15:30 - 22:55L.O. 料理22:00 ドリンク22:20,■ 定休日月曜日（祝日の際は火曜日）・お盆・年末年始,カード可 （VISA、Master、JCB、AMEX、Diners） 電子マネー不可 QRコード決済可 （PayPay、au PAY）,"35.69883163872414,139.82702088451973",03-5875-3346,東京都江東区亀戸5-11-1 ,368,unagi,False,35.69883163872414,139.82702088451973,unagi
,味治,中野駅 284m , うなぎ、串焼き、居酒屋,,"￥6,000～￥7,999","￥6,000～￥7,999",3.56,日曜日,https://tabelog.com/tokyo/A1319/A131902/13059507/,予約可,,ＪＲ中央線、東京メトロ東西線【中野駅】北口　徒歩５分 中野駅から284m,,,カード不可 電子マネー不可 QRコード決済不可,"35.7081551386672,139.66683318472622",03-6677-1990,東京都中野区中野5-57-10 ,366,unagi,False,35.7081551386672,139.66683318472622,unagi
,鰻 炭焼 ひつまぶし 美濃金 神田本店,末広町駅 77m , うなぎ、日本料理、丼,末広町駅スグ◆岐阜県伝統の美濃地焼きで提供する鰻専門店◆期間限定 秋のこだわり一品メニュー,"￥5,000～￥5,999","￥5,000～￥5,999",3.56,,https://tabelog.com/tokyo/A1311/A131101/13277621/,予約可,,- 東京メトロ銀座線「末広町」駅 4番出口 徒歩1分- 東京メトロ千代田線湯島駅徒歩 5分- JR「秋葉原駅」 電気街口徒歩7分 末広町駅から77m,,,カード可 （VISA、Master、JCB） 電子マネー可 （交通系電子マネー（Suicaなど）、楽天Edy、WAON、QUICPay） QRコード決済可 （d払い、楽天ペイ、au PAY）,"35.70346833870344,139.77131798460562",03-6806-0328,東京都千代田区外神田6-14-3 VORT末広町2 1F,316,unagi,False,35.70346833870344,139.77131798460562,unagi
,大江戸 南青山店,外苑前駅 285m , うなぎ、日本料理,,"￥8,000～￥9,999","￥8,000～￥9,999",3.56,-,https://tabelog.com/tokyo/A1306/A130603/13012964/,予約可,,東京メトロ銀座線【外苑前駅】徒歩４分東京メトロ銀座線・半蔵門線、都営地下鉄大江戸線【青山一丁目駅】徒歩６分 外苑前駅から285m,11:00 - 14:30,■ 定休日無休　（年末年始休みあり）,カード可 （VISA、Master、JCB、AMEX、Diners） 電子マネー不可 QRコード決済不可,"35.67061843870827,139.72091808430915",03-3402-0641,東京都港区南青山2-14-22 ,203,unagi,False,35.67061843870827,139.72091808430915,unagi
,小川の魚,八王子駅 471m , 居酒屋、うなぎ、どじょう,,"￥4,000～￥4,999","￥4,000～￥4,999",3.56,-,https://tabelog.com/tokyo/A1329/A132904/13173968/,予約可,,京王線京王八王子駅　徒歩12分JR八王子駅 徒歩10分 八王子駅から471m,17:00 - 22:30L.O. 22:00,祝日営業します。月曜日が祝日の場合、翌日がお休みになります。,カード可 （VISA、Master、JCB、AMEX） 電子マネー可 QRコード決済可 （PayPay、d払い、楽天ペイ）,"35.65903963859312,139.33626278446178",042-649-3317,東京都八王子市横山町8-4 1F,173,unagi,False,35.65903963859312,139.33626278446178,unagi
,うなぎ四代目菊川 羽田エアポートガーデン店,羽田空港第３ターミナル（京急）駅 217m , うなぎ、海鮮、天ぷら,うなぎ問屋直営 関西風うなぎの『パリッ・フワッ・トロッ』を 世界の窓口羽田空港で楽しめます。,"￥4,000～￥4,999","￥4,000～￥4,999",3.56,,https://tabelog.com/tokyo/A1315/A131504/13280605/,予約可,ご希望のお時間にご予約が出来ない場合でも入店時間や滞在時間をご調整頂ければご案内できる場合もございます。ぜひお電話にてお問い合わせ下さい。,京急本線エアポート行き 羽田空港第３ターミナル駅（京急）から217m,11:00 - 22:00L.O. 21:00,■ 定休日年中無休（施設の休みに準ずる）,カード可 （VISA、Master、JCB） 電子マネー可 QRコード決済可 （PayPay、d払い、楽天ペイ、au PAY）,"35.544187838802586,139.76495188300123",03-5579-7507,東京都大田区羽田空港2-7-1 羽田エアポートガーデン 1F,108,unagi,False,35.544187838802586,139.76495188300123,unagi
,寿々喜,蒲田駅 304m , うなぎ、焼き鳥、どじょう,,"￥3,000～￥3,999","￥3,000～￥3,999",3.55,-,https://tabelog.com/tokyo/A1315/A131503/13050406/,予約可,,東急蒲田駅から、徒歩3分JR蒲田駅（西口）から、徒歩4分 蒲田駅から304m,,,カード不可 電子マネー不可 QRコード決済不可,"35.5619723040914,139.71276119871692",03-3731-5239,東京都大田区西蒲田7-63-2 ,512,unagi,False,35.5619723040914,139.71276119871692,unagi
,神田きくかわ 上野毛店,上野毛駅 679m , うなぎ,,-,-,3.55,月曜日,https://tabelog.com/tokyo/A1317/A131715/13003114/,予約可,御席の御利用時間は、90分制となっております。,車、タクシー 上野毛駅から679m,11:30 - 20:30,■ 定休日月曜日(祝日の場合のみ振替休日),カード可 （VISA、JCB、AMEX、Diners） 電子マネー不可 QRコード決済不可,"35.616110738718525,139.64444428381216",03-3705-3737,東京都世田谷区中町4-20-13 ,383,unagi,False,35.616110738718525,139.64444428381216,unagi
,いづもや 日本橋三越店,三越前駅 98m , うなぎ,,"￥3,000～￥3,999","￥3,000～￥3,999",3.55,-,https://tabelog.com/tokyo/A1302/A130202/13097085/,予約不可,大串蒲焼き2枚付きうな重、各日限定10食は、10:15から整理券が配られ、予約は承れません。,地下鉄銀座線・半蔵門線　三越前駅からすぐ 三越前駅から98m,10:00 - 19:30L.O. 19:00,■ 定休日1/1(日本橋三越本店に準ずる),カード可 （VISA、Master、JCB、AMEX） 電子マネー可 QRコード決済可,"35.68582483203167,139.7730488227731",03-3274-8628,東京都中央区日本橋室町1-4-1 日本橋三越本店本館 B1F,251,unagi,False,35.68582483203167,139.7730488227731,unagi
,いづもや 別館,三越前駅 302m , うなぎ、日本料理,,"￥8,000～￥9,999","￥8,000～￥9,999",3.55,日曜日、祝日,https://tabelog.com/tokyo/A1302/A130202/13040225/,予約可,,東京メトロ銀座線・半蔵門線　三越前駅　徒歩２分ＪＲ総武本線　新日本橋駅　徒歩２分ＪＲ中央線　神田駅　徒歩６分 三越前駅から302m,11:00 - 14:00,■ 営業時間営業時間・定休日は変更となる場合がございますので、ご来店前に店舗にご確認ください。,カード可 （VISA、Master、JCB、AMEX、Diners） 電子マネー不可,"35.68757013871344,139.77098798444527",03-3241-3412,東京都中央区日本橋本石町3-3-2 ,207,unagi,False,35.68757013871344,139.77098798444527,unagi
,うなぎ 炙一徹,日比谷駅 172m , うなぎ,,"￥8,000～￥9,999","￥8,000～￥9,999",3.55,月曜日、日曜日,https://tabelog.com/tokyo/A1301/A130102/13002136/,予約可,ランチタイムには一般料理の提供はしません。焼き時間は相当かかりますので。,JR有楽町駅より、徒歩10分足らず。地下鉄丸ノ内線銀座駅C1出口から 徒歩2分 日比谷駅から172m,,,カード可 （VISA、Master、JCB、AMEX、Diners） 電子マネー不可 QRコード決済可,"35.67289953871939,139.7604142843045",03-3501-2550,東京都千代田区有楽町1-2-8 ,176,unagi,False,35.67289953871939,139.7604142843045,unagi
,ひつまぶし名古屋備長 丸ビル店,二重橋前駅 209m , うなぎ、日本料理,【東京駅近】東京５店舗目！！本場名古屋の極上のひつまぶしを,"￥5,000～￥5,999","￥5,000～￥5,999",3.55,,https://tabelog.com/tokyo/A1302/A130201/13228980/,予約可,●ランチタイムの営業時間11:00～14:30L.O14:00となっております。予約画面の滞在可能時間と実際の滞在可能時間が異なる場合がございますのでご了承下さい。●ご希望の座席タイプをお選びの上ご予約時に指定をお願いいたします。ネット予約の場合、ご希望の座席タイプが表示されない場合は、他の席タイプをお選びください。,JR各線・新幹線東京駅丸の内南口から徒歩すぐ、丸の内ビルディング内６FJR線東京駅丸の内南口地下改札、東京メトロ丸ノ内線東京駅から地下通路直結東京メトロ東西線・半蔵門線・千代田線大手町駅から徒歩約7分東京メトロ千代田線二重橋前駅、都営三田線大手町駅から行幸通り地下通路経由徒歩約7分 二重橋前駅から209m,11:00 - 14:30L.O. 14:00,■ 定休日丸の内ビルディングに準ずる■年末年始の営業日・営業時間・～12/31(火)　通常営業・1/1(水)　休業・1/2(木)～　通常営業,カード可 （VISA、Master、JCB、AMEX、Diners） 電子マネー可 （交通系電子マネー（Suicaなど）、iD、QUICPay） QRコード決済可 （PayPay、d払い、楽天ペイ、au PAY）,"35.68095183871536,139.76381348438343",03-6259-1667,東京都千代田区丸の内2-4-1 丸ビル 6F,176,unagi,False,35.68095183871536,139.76381348438343,unagi
,人形町 梅田,人形町駅 145m , うなぎ,,"￥10,000～￥14,999","￥10,000～￥14,999",3.55,日曜日、祝日,https://tabelog.com/tokyo/A1302/A130204/13003026/,予約可,昼・11時50分迄でサービスメニューのご注文は承っておりません。夜・19時迄のご予約で承っております。,"東京メトロ日比谷線,　都営浅草線 【　人形町駅　】　A5出口より徒歩１分です。 人形町駅から145m",11:00 - 14:30L.O. 13:45,[土]早仕舞いする場合もございます。,カード可 （VISA、Master、JCB、AMEX、Diners） 電子マネー不可,"35.68602943871756,139.78085388442278",03-3661-0160,東京都中央区日本橋人形町3-4-2 ,160,unagi,False,35.68602943871756,139.78085388442278,unagi
,吉野,代々木公園駅 508m , うなぎ、焼き鳥、親子丼,,"￥2,000～￥2,999","￥2,000～￥2,999",3.55,日曜日、祝日,https://tabelog.com/tokyo/A1318/A131810/13053778/,予約可,ランチのご予約は不可,東京メトロ千代田線 代々木公園駅 2番出口徒歩6分 代々木公園駅から508m,,,カード不可 電子マネー不可 QRコード決済不可,"35.66504253870285,139.69278308427255",03-3468-8811,東京都渋谷区神山町40-1 鈴井ビル１F,120,unagi,False,35.66504253870285,139.69278308427255,unagi
,菊水楼 うな菊 ホテル椿山荘東京店,早稲田（都電）駅 504m , うなぎ,,"￥10,000～￥14,999","￥10,000～￥14,999",3.55,-,https://tabelog.com/tokyo/A1309/A130905/13282730/,予約可,※滞在のお時間はご予約時間から90分を原則とさせていただいております。ご予約時間から到着が遅くなった場合、滞在いただけるお時間が短くなることがございますので、何卒ご了承ください。※ご予約時に料理をお決めいただいた際もご来店時より調理を始めます。 ご提供までに20～30分お時間を頂戴致しますので、ご了承ください。,"【電車でお越しの場合】●東京メトロ 有楽町線「江戸川橋駅」1a出口：徒歩約 10分・1a出口から地上へ出て神田川の橋(江戸川橋)を渡る・約30m先ひとつ目の信号（八百屋の角）を左折・道なり（登り坂）約500m※神田川沿いにございます「冠木門」からお入り頂くことは出来ませんので、ご足労ではございますが、上記経路よりホテル棟正面エントランスからホテル庭園内へお進みください。【お車でお越しの場合】首都高5号線「早稲田ランプ」約5分／首都高5号線「護国寺ランプ」約5分／首都高5号線「東池袋ランプ」約8分※ホテル内に約400台の駐車場がございます。・3,000円以上10,000円未満ご利用　3時間無料・10,000円以上ご利用　6時間無料【ホテル内の経路】1 ホテル棟フロントロビー（3階）から1階へお進みください。2 庭園への入り口から通路へお進みください。3 赤い橋（弁慶橋）を渡り、左へお進みください。4 正面に池がございますので、そちらを左へお進みください。5 右側にございます階段（うな菊の看板がございます）をお進みください。(約50段ほど階段をお進み頂いたところに弊店の門がございます。)※階段以外の経路がございませんので、車椅子、ベビーカーでお越しのお客様は何卒ご容赦ください。 早稲田駅（都電）から504m",11:00 - 14:30,※臨時休業を頂く場合がございますので、何卒ご了承ください。,カード可 （VISA、Master、JCB、AMEX、Diners） 電子マネー可 （交通系電子マネー（Suicaなど）、楽天Edy、nanaco、WAON、iD、QUICPay） QRコード決済可 （PayPay）,"35.71216313868295,139.7243140847264",050-3647-4317,東京都文京区関口2-10-8 ホテル椿山荘東京 庭園,87,unagi,False,35.71216313868295,139.7243140847264,unagi
,うなぎの中庄 虎ノ門ヒルズ店,虎ノ門ヒルズ駅 31m , うなぎ、日本料理、海鮮,"【老舗鰻卸問屋直営】関西風の地焼きの""呑めるうなぎ屋""","￥4,000～￥4,999","￥4,000～￥4,999",3.55,,https://tabelog.com/tokyo/A1308/A130802/13291422/,予約可,,東京メトロ日比谷線　虎ノ門ヒルズ駅徒歩3分 虎ノ門ヒルズ駅から31m,,,カード可 （VISA、Master、JCB、AMEX、Diners） 電子マネー可 （交通系電子マネー（Suicaなど）、楽天Edy、nanaco、WAON、iD、QUICPay） QRコード決済可 （PayPay、d払い、楽天ペイ、au PAY）,"35.66747662572381,139.74747984661434",03-6206-6151,東京都港区虎ノ門2-6-1 虎ノ門ヒルズステーションタワー 4F,75,unagi,False,35.66747662572381,139.74747984661434,unagi
,おひつ膳 田んぼ 代々木本店,南新宿駅 166m , 日本料理、おにぎり、うなぎ,,"￥2,000～￥2,999","￥2,000～￥2,999",3.54,-,https://tabelog.com/tokyo/A1304/A130403/13000681/,予約不可,,ＪＲ中央線・山手線【代々木駅】西口　徒歩３分都営地下鉄大江戸線【代々木駅】徒歩３分小田急小田原線【南新宿駅】徒歩３分 南新宿駅から166m,,,カード不可 電子マネー不可 QRコード決済可,"35.68239653869409,139.69988068444286",03-3320-0727,東京都渋谷区代々木1-41-9 DMK代々木ビル 1F,725,unagi,False,35.68239653869409,139.69988068444286,unagi
,新宿うな鐵　恵比寿店,恵比寿駅 130m , うなぎ、日本料理、どじょう,熟練の職人が一本一本心を込めて焼き上げる鰻料理の数々。頭から尻尾まで鰻を味わい尽くす贅沢を,"￥6,000～￥7,999","￥6,000～￥7,999",3.54,,https://tabelog.com/tokyo/A1303/A130302/13203474/,予約可,,JR　山手線、埼京線、湘南新宿ライン東京メトロ　日比谷線『恵比寿駅　西口』より徒歩2分 恵比寿駅から130m,11:00 - 22:30L.O. 22:00,■ 営業時間営業時間11:00～22:30（中休みなし）電話受付11:00 ~ 23:00当日予約はお電話にて承っております。ネット予約では席指定でのご案内が出来ないため、お席の希望がある場合にはお電話にてご相談下さい。皆様のご来店、心よりお待ち申し上げております。■ 定休日年末年始,カード可 （VISA、Master、JCB、AMEX、Diners） 電子マネー不可 QRコード決済可 （PayPay）,"35.64614843871998,139.70890608407038",03-6412-8556,東京都渋谷区恵比寿南1-4-7 シエルブルー恵比寿南１階,634,unagi,False,35.64614843871998,139.70890608407038,unagi
,うなぎ本丸,御成門駅 305m , うなぎ,,-,-,3.54,,https://tabelog.com/tokyo/A1314/A131401/13022349/,予約可,,電車でお越しの方は都営三田線　御成門駅徒歩５分　営団日比谷線　神谷町駅徒歩10分お車でお越しの方は首都高速芝公園出口を出て日比谷通りに入り左折します。1.0㎞ほど進むと芝郵便局前（交差点）がありますので左折します。その後１０m進みすぐに右折していただくと当店がございます。 御成門駅から305m,,,カード可 （VISA、Master、JCB、AMEX、Diners） 電子マネー可 （交通系電子マネー（Suicaなど）、楽天Edy、nanaco、WAON、iD） QRコード決済可 （PayPay、d払い、au PAY）,"35.66336473872273,139.7518515842142",03-3432-2564,東京都港区西新橋3-19-12 ,366,unagi,False,35.66336473872273,139.7518515842142,unagi
,野田岩 日本橋高島屋特別食堂,日本橋駅 182m , うなぎ,,"￥8,000～￥9,999","￥8,000～￥9,999",3.54,-,https://tabelog.com/tokyo/A1302/A130202/13000131/,予約可,席の予約ができるのは平日午後5時以降の時間帯。土日祝日は予約不可。,日本橋駅から182m,11:00 - 21:30L.O. 20:00,■ 定休日不定休（高島屋に準ずる）,カード可 （Diners） 電子マネー可 QRコード決済可,"35.68054736648103,139.77451005551333",03-3211-4111,東京都中央区日本橋2-4-1 日本橋タカシマヤ 8F,263,unagi,False,35.68054736648103,139.77451005551333,unagi
,宇な米,四谷三丁目駅 185m , うなぎ,,"￥6,000～￥7,999","￥6,000～￥7,999",3.54,木曜日,https://tabelog.com/tokyo/A1309/A130903/13012038/,予約可,,四谷三丁目駅から185m,11:30 - 13:30,■ 定休日第2・4水曜日,カード不可 電子マネー不可 QRコード決済不可,"35.68870553869726,139.72244898449077",03-3351-0405,東京都新宿区荒木町2 前田ビル 1F,96,unagi,False,35.68870553869726,139.72244898449077,unagi
,うなぎと炭やき いちまる,千歳船橋駅 210m , うなぎ、焼き鳥、串焼き,,"￥5,000～￥5,999","￥5,000～￥5,999",3.54,月曜日、火曜日,https://tabelog.com/tokyo/A1318/A131813/13084012/,予約可,,小田急線千歳船橋駅徒歩3分 千歳船橋駅から210m,,,カード可 （AMEX） 電子マネー可 （交通系電子マネー（Suicaなど）） QRコード決済不可,"35.64757673869143,139.62206108414568",03-3420-3724,東京都世田谷区船橋1-29-10 ,64,unagi,False,35.64757673869143,139.62206108414568,unagi
,宮川本廛 赤坂宮川,赤坂駅 128m , うなぎ、日本料理,赤坂で伝統の味を守り信頼され続けて7０年余り白木と竹の清々しい純和風空間で満ち足りた一時を,"￥4,000～￥4,999","￥4,000～￥4,999",3.53,,https://tabelog.com/tokyo/A1308/A130801/13007865/,予約可,※サービス料として10％を申し受けます。※確認のお電話をさせていただく場合がございます。※変更・キャンセルがある場合は、必ず事前にお電話でご連絡ください。※事前のご連絡無く30分以上過ぎても予約時間にお越しいただけない場合はキャンセル扱いとさせていただきます。,地下鉄千代田線赤坂駅7番出口 徒歩1分 赤坂駅から128m,11:30 - 14:30L.O. 14:00,■定休日　月曜日,カード可 （VISA、Master、JCB、AMEX、Diners） 電子マネー不可 QRコード決済不可,"35.67137263871236,139.73527008430668",03-3583-3136,東京都港区赤坂5-4-13 ホワイト赤坂ビル　1F,366,unagi,False,35.67137263871236,139.73527008430668,unagi
,うなぎ四代目菊川 東京駅黒塀横丁店,東京駅 157m , うなぎ、日本料理,【東京駅B1F】老舗卸問屋が運営する「うなぎ四代目菊川」,"￥5,000～￥5,999","￥5,000～￥5,999",3.53,,https://tabelog.com/tokyo/A1302/A130201/13269285/,予約可,,JR全線/東京メトロ【1F】八重洲北口改札を出て左手側へ進み、地下へ降りるエスカレーターでB1Fへ。エスカレーター降りたら再び左手側へ進んでいただくと当店左手側に見えてまいります。【B1F】グランスタ地下北口改札を出て右手側へ1分ほど進むと、左手側に黒い壁で「黒塀横丁」と書かれた看板をくぐっていただくと正面に当店見えてまいります。 東京駅から157m,11:00 - 23:00L.O. 21:30,■ 定休日年中無休（元旦のみ休業）,カード可 （VISA、Master、JCB、AMEX、Diners） 電子マネー可 （交通系電子マネー（Suicaなど）、楽天Edy、nanaco、WAON、iD、QUICPay） QRコード決済可 （PayPay、d払い、楽天ペイ、au PAY）,"35.68234393871582,139.76801218439456",03-6812-2121,東京都千代田区丸の内1-9-1 JR東日本東京駅 B1F,247,unagi,False,35.68234393871582,139.76801218439456,unagi
,うなぎ高瀬,小宮駅 197m , うなぎ,,-,-,3.53,水曜日、木曜日,https://tabelog.com/tokyo/A1329/A132904/13010820/,予約可,,国道20号「石川入口」交差点より昭島方面へ3Km。多摩大橋より南へ1km。JR八高線小宮駅徒歩2分。 小宮駅から197m,,,カード不可 電子マネー不可 QRコード決済可 （PayPay）,"35.68507253858757,139.37073108470062",0426-46-7762,東京都八王子市小宮町1112-4 ,235,unagi,False,35.68507253858757,139.37073108470062,unagi
,うなぎ青葉,新富町駅 279m , うなぎ,,"￥8,000～￥9,999","￥8,000～￥9,999",3.53,日曜日,https://tabelog.com/tokyo/A1313/A131301/13025344/,予約可,夜の予約は、１８時３０分ご来店までとなります。予約のお客様は、お時間変更及びキャンセルの場合、必ずお電話でご連絡頂きますようお願い致します。予約の時間を過ぎますとキャンセル扱いとなります。お昼は時間帯によっては、お受け出来ない場合がございます。,東京メトロ有楽町線新富町駅徒歩５分 新富町駅から279m,11:30 - 14:00L.O. 13:30,土曜、祝日は、不定休となります。夜　17:15〜19:30おつまみ、夜のおつまみL.O20:00メイン料理L.O21:30閉店最終入店時間は、昼１３時２５分、夜１９時５０分となります。営業日に関しましては、Instagramよりご確認お願い致します。,カード可 （VISA、Master、JCB、AMEX、Diners） 電子マネー可 （交通系電子マネー（Suicaなど）、iD、QUICPay） QRコード決済不可,"35.67298893872345,139.77331198429636",03-5541-3633,東京都中央区新富1-5-5 ,188,unagi,False,35.67298893872345,139.77331198429636,unagi
,よし邑,蓮根駅 177m , 日本料理、ふぐ、うなぎ,日本の伝統とモダンな真空間へようこそ,"￥8,000～￥9,999","￥8,000～￥9,999",3.53,,https://tabelog.com/tokyo/A1322/A132205/13039156/,予約可,,電車　・・・　都営三田線蓮根駅より徒歩２分　車　・・・　　首都高速５号線中台出口より５分バス　・・・　国際興業バスで志村健康福祉センター入り口停留所から徒歩５分 蓮根駅から177m,,,カード可 （VISA、Master、JCB、AMEX、Diners） 電子マネー不可 QRコード決済可 （PayPay）,"35.78289733862327,139.6779019854734",03-3968-1301,東京都板橋区蓮根2-19-12 ,142,unagi,False,35.78289733862327,139.6779019854734,unagi
,重箱,赤坂駅 240m , うなぎ,,"￥40,000～￥49,999","￥40,000～￥49,999",3.53,-,https://tabelog.com/tokyo/A1308/A130801/13002768/,完全予約制,,東京メトロ　千代田線赤坂駅　5a出口徒歩4分 赤坂駅から240m,,,カード可 （VISA、Master） 電子マネー不可 QRコード決済不可,"35.67067423871375,139.73823878429755",03-3583-1319,東京都港区赤坂2-17-61 ,116,unagi,False,35.67067423871375,139.73823878429755,unagi
,満寿家,神田駅 128m , ふぐ、うなぎ,,"￥20,000～￥29,999","￥20,000～￥29,999",3.53,土曜日、日曜日、祝日,https://tabelog.com/tokyo/A1310/A131002/13044340/,予約可,ランチ時予約はコース料理のみ可（鰻重での席予約は不可）,東京メトロ銀座線【神田駅】４番地上口すぐＪＲ中央線ほか【神田駅】北口／東口　徒歩２分 神田駅から128m,,,カード可 （VISA、Master、JCB、AMEX、Diners） 電子マネー不可,"35.69331233870977,139.77087158450334",03-3256-8897,東京都千代田区神田鍛冶町3-3 ,93,unagi,False,35.69331233870977,139.77087158450334,unagi
,よし田,浅草橋駅 264m , うなぎ、ふぐ、日本料理,,"￥4,000～￥4,999","￥4,000～￥4,999",3.53,月曜日、日曜日、祝日,https://tabelog.com/tokyo/A1311/A131103/13016878/,予約可,,ＪＲ総武線、都営地下鉄浅草線【浅草橋駅】徒歩３分 浅草橋駅から264m,,,カード不可 電子マネー不可 QRコード決済不可,"35.6972413387128,139.78823878453085",03-3851-7802,東京都台東区柳橋1-26-10 吉田ビル 1F,76,unagi,False,35.6972413387128,139.78823878453085,unagi
,うなちゃん,国立駅 181m , うなぎ、串焼き、居酒屋,,"￥3,000～￥3,999","￥3,000～￥3,999",3.53,-,https://tabelog.com/tokyo/A1325/A132503/13016336/,予約可,,国立駅北口から徒歩1分 国立駅から181m,,,カード不可 電子マネー不可 QRコード決済不可,"35.69940523860313,139.4481877847911",042-575-3399,東京都国立市北1-1 ,75,unagi,False,35.69940523860313,139.4481877847911,unagi
,西麻布鮨いち,乃木坂駅 626m , 寿司、海鮮、うなぎ,,"￥30,000～￥39,999","￥30,000～￥39,999",3.53,水曜日,https://tabelog.com/tokyo/A1307/A130701/13186721/,完全予約制,【予約に関しまして】当店は＜完全予約制＞となります。必ずご連絡下さいますようお願い致します。ご予約はお電話またはインターネットの予約サイト（ポケットコンシェルジュ）からお願いします。,東京メトロ 千代田線 乃木坂駅　徒歩10分東京メトロ 日比谷線 六本木駅　徒歩10分都営地下鉄 大江戸線 六本木駅　徒歩10分 乃木坂駅から626m,17:00 - 22:00,■ 営業時間【ディナー】 (最終入店20:30)【土日限定お昼の営業】 (最終入店12:30)■ 定休日第2第4火曜日,カード可 （VISA、Master、JCB、AMEX、Diners） 電子マネー不可 QRコード決済不可,"35.66133363871513,139.7239410842132",03-6447-2337,東京都港区西麻布1-10-14 アビターレ霞町1F,65,unagi,False,35.66133363871513,139.7239410842132,unagi
,ほさかや,自由が丘駅 92m , うなぎ、居酒屋、焼酎バー,,"￥2,000～￥2,999","￥2,000～￥2,999",3.52,日曜日,https://tabelog.com/tokyo/A1317/A131703/13008198/,予約不可,,東急自由が丘駅徒歩1分 自由が丘駅から92m,11:30 - 14:00,■ 定休日第2月曜日,カード可 （VISA、Master、JCB） 電子マネー可 （交通系電子マネー（Suicaなど）） QRコード決済可,"35.608001138731616,139.6693192837128",03-3717-6538,東京都目黒区自由が丘1-11-5 ,669,unagi,False,35.608001138731616,139.6693192837128,unagi
,うなぎ割烹 大江戸,新日本橋駅 154m , うなぎ、日本料理,三越前駅5分◆落ち着いた和空間で、創業200年以上を誇る伝統のうなぎを堪能。テイクアウト可,"￥8,000～￥9,999","￥8,000～￥9,999",3.52,,https://tabelog.com/tokyo/A1302/A130202/13000314/,予約可,,新日本橋駅から徒歩３分神田駅から徒歩5分三越前駅から徒歩5分小伝馬町駅から徒歩5分 新日本橋駅から154m,,,カード可 （VISA、Master、JCB、AMEX、Diners） 電子マネー可 （交通系電子マネー（Suicaなど）、iD、QUICPay） QRコード決済可 （PayPay）,"35.689910538713264,139.775137484466",03-3241-3838,東京都中央区日本橋本町4-7-10 ,570,unagi,False,35.689910538713264,139.775137484466,unagi
,うなぎ 和友,江戸川区 , うなぎ、丼,,"￥4,000～￥4,999","￥4,000～￥4,999",3.52,水曜日、土曜日、日曜日,https://tabelog.com/tokyo/A1312/A131204/13044020/,予約不可,,"総武線新小岩駅より、葛西または西葛西行きバスで江戸川区役所前下車徒歩約5分 新小岩駅から1,600m",,,カード不可 電子マネー不可 QRコード決済不可,"35.70557063873314,139.8687208845586",03-5607-0064,東京都江戸川区中央1-3-20 ,477,unagi,False,35.70557063873314,139.8687208845586,unagi
,にょろ助 銀座,東銀座駅 276m , うなぎ、鍋、丼,,"￥6,000～￥7,999","￥6,000～￥7,999",3.52,,https://tabelog.com/tokyo/A1301/A130101/13248415/,予約可,"◆ご連絡なしにご予約時間を15分過ぎた場合、キャンセルとさせていただきます。If you are delayed for over 15 minutes without notice, your reservation will be cancelled.◆キャンセル料について予約取消時・当日連絡なし  100%・当日連絡あり  100%",日比谷線 「東銀座駅」 A1出口より徒歩4分銀座線　丸の内線　日比谷線「銀座駅」 東銀座駅から276m,11:00 - 22:00L.O. 21:00,■ 定休日無休,カード可 （VISA、Master、JCB、AMEX、Diners） 電子マネー不可 QRコード決済可 （PayPay、d払い、楽天ペイ、au PAY）,"35.66886463872323,139.76439388426095",03-5537-5914,東京都中央区銀座6-12-7 銀座新星ビル,341,unagi,False,35.66886463872323,139.76439388426095,unagi
,かぐら坂 志満金,飯田橋駅 239m , うなぎ、日本料理,,"￥10,000～￥14,999","￥10,000～￥14,999",3.52,,https://tabelog.com/tokyo/A1309/A130905/13006458/,予約可,,東京メトロ有楽町線・南北線【飯田橋駅】徒歩１分ＪＲ中央線（各駅停車）【飯田橋駅】西口　徒歩３分東京メトロ東西線【飯田橋駅】徒歩６分東京メトロ 東西線 有楽町線 南北線 大江戸線 各線共通 B3出口 地上上がって 右斜め前 すぐ 飯田橋駅から239m,11:00 - 22:00L.O. 21:00,■ 定休日　水曜日年末年始　12/31(火)～1/5(日)10/8(火)・11/19(火)はお休みします。,カード可 （VISA、Master、JCB、AMEX、Diners） 電子マネー可 QRコード決済可 （PayPay）,"35.70059093869596,139.74204518459706",03-3269-3151,東京都新宿区神楽坂2-1 ,337,unagi,False,35.70059093869596,139.74204518459706,unagi
,鰻割烹 伊豆栄 梅川亭,京成上野駅 387m , うなぎ、日本料理,～上野の杜で四季折々の自然を愛でながら～,"￥10,000～￥14,999","￥10,000～￥14,999",3.52,月曜日,https://tabelog.com/tokyo/A1311/A131101/13005078/,予約可,,ＪＲ上野駅公園口から 徒歩5分 京成上野駅から387m,11:00 - 15:00L.O. 14:30,■ 定休日年末年始の営業日はお問い合わせください,カード可 （VISA、Master、JCB、AMEX、Diners） 電子マネー不可 QRコード決済不可,"35.71484683869636,139.77172488472024",03-5685-2011,東京都台東区上野公園4-34 ,301,unagi,False,35.71484683869636,139.77172488472024,unagi
,はせ川,平和島駅 311m , うなぎ、どじょう,,"￥4,000～￥4,999","￥4,000～￥4,999",3.52,水曜日,https://tabelog.com/tokyo/A1315/A131502/13019629/,予約不可,人数により応相談,京急 平和島から徒歩５分 平和島駅から311m,,,カード可 （VISA、Master、JCB、AMEX、Diners） 電子マネー不可 QRコード決済不可,"35.57833993877026,139.73156238336955",03-3761-5282,東京都大田区大森西2-4-4 ,174,unagi,False,35.57833993877026,139.73156238336955,unagi
,鰻割烹 伊豆栄 本店,上野御徒町駅 201m , うなぎ、日本料理,【JR上野駅/御徒町駅すぐ】,"￥10,000～￥14,999","￥10,000～￥14,999",3.51,-,https://tabelog.com/tokyo/A1311/A131101/13003586/,予約可,"〇個室ご利用の場合3名様より、ご飲食代の合計より15％をサービス料として頂戴しております。※平日夕方以降・土日祭日の個室ご予約は、松コース(8,800円～）から承ります。〇土日祭日のお昼の御予約個室のみ承ります。（松コース8800円より）※席だけの御予約は伺っておりませんご了承ください「窓側」などのご指定はできません。できるだけ良いお席でご案内させて頂きます。",ＪＲ上野駅しのばず口から 徒歩5分 上野御徒町駅から201m,11:00 - 21:00L.O. 料理20:15 ドリンク20:30,■ 営業時間12月31日、1月1日は定休日■ 定休日年末年始の営業はお問い合わせください,カード可 （VISA、Master、JCB、AMEX） 電子マネー不可 QRコード決済不可,"35.70966116580655,139.77273025176243",03-3831-0954,東京都台東区上野2-12-22 ,734,unagi,False,35.70966116580655,139.77273025176243,unagi
,西麻布いちのや,広尾駅 782m , うなぎ、居酒屋、ワインバー,,"￥10,000～￥14,999","￥10,000～￥14,999",3.51,月曜日,https://tabelog.com/tokyo/A1307/A130701/13016514/,予約可,,日比谷線広尾駅から徒歩8分 広尾駅から782m,11:30 - 14:00,■ 定休日月曜日定休（＊祝日の際は営業。翌日火曜日定休）,カード可 （VISA、Master、JCB、AMEX、Diners） 電子マネー不可 QRコード決済不可,"35.65883833871658,139.7235539841883",03-5766-1536,東京都港区西麻布4-1-6 高塚ビル 1F・2F,332,unagi,False,35.65883833871658,139.7235539841883,unagi
,日本橋 伊勢定 本店,三越前駅 93m , うなぎ、日本料理,,-,-,3.51,日曜日,https://tabelog.com/tokyo/A1302/A130202/13000306/,予約可,,東京メトロ半蔵門線　三越前駅（Ａ１出口）徒歩１分 東京メトロ銀座線　三越前駅（Ａ４出口）徒歩２分ＪＲ総武本線　新日本橋駅　徒歩４分東京メトロ東西線　日本橋駅　徒歩４分 三越前駅から93m,,,カード可 （VISA、Master、JCB、AMEX、Diners） 電子マネー不可 QRコード決済不可,"35.68562803871582,139.77453708442317",03-3241-0039,東京都中央区日本橋室町1-5-17 ,332,unagi,False,35.68562803871582,139.77453708442317,unagi
,新橋 うなぎのお宿,新橋駅 352m , うなぎ、日本料理,【新橋駅徒歩5分！】新橋で20年。肉厚うな重と、うな串の店！,"￥4,000～￥4,999","￥4,000～￥4,999",3.51,,https://tabelog.com/tokyo/A1301/A130103/13035340/,予約可,予約専用電話 090-3858-8123新橋店、虎ノ門店近隣の為お間違い御座いませんよう御注意願います。お昼は、お重(梅以外)をお決め頂いたお客様のみ御予約承ります。お昼のお会計は現金、ペイペイのみとさせて頂きます。お席は【２時間制】とさせて頂きます。席のみ予約の際、鰻の売切れ商品が出る事がございますので予めご了承ください。,「新橋駅」より徒歩6分「内幸町駅」より徒歩3分「虎ノ門駅」より徒歩８分 新橋駅から352m,,,カード可 （VISA、Master、JCB、AMEX、Diners） 電子マネー可 QRコード決済不可,"35.66591883872191,139.7543967842382",090-3858-8123,東京都港区新橋3-3-4 駒倉ビル 1F,327,unagi,False,35.66591883872191,139.7543967842382,unagi
,うなぎ四代目菊川 ムスブ田町店,田町駅 173m , うなぎ,昭和七年創業。老舗鰻卸問屋が営む「うなぎ四代目菊川」で名物一本うなぎを。,"￥5,000～￥5,999","￥5,000～￥5,999",3.51,,https://tabelog.com/tokyo/A1314/A131402/13250000/,予約可,,JR田町駅芝浦口　徒歩3分都営地下鉄三田線三田駅　徒歩5分都営地下鉄浅草線三田駅　徒歩5分 田町駅から173m,11:00 - 15:00L.O. 14:00,■ 定休日年末年始（施設に準ずる。）,カード可 （VISA、Master、JCB、AMEX、Diners） 電子マネー可 （交通系電子マネー（Suicaなど）、iD、QUICPay） QRコード決済不可,"35.645949519722556,139.74953455600703",03-6435-1128,東京都港区芝浦3-1-1 msb Tamachi田町ステーションタワーN 1F,252,unagi,False,35.645949519722556,139.74953455600703,unagi
,にょろ助 赤坂,赤坂見附駅 222m , うなぎ、鍋、丼,,"￥5,000～￥5,999","￥5,000～￥5,999",3.51,日曜日,https://tabelog.com/tokyo/A1308/A130801/13202274/,予約可,※「にょろ助　赤坂」あらため、「丸壱富士  赤坂（まるいちふじ　あかさか）」として、2024年8月、リニューアルOPEN！,東京メトロ　千代田線　赤坂駅東京メトロ　銀座線　赤坂見附駅東京メトロ　丸の内線　赤坂見附駅 赤坂見附駅から222m,11:30 - 15:00L.O. 14:30,■ 定休日　変更する場合がございます。※「にょろ助　赤坂」あらため、「丸壱富士  赤坂（まるいちふじ　あかさか）」として、2024年8月、リニューアルOPEN！,カード可 （VISA、Master、JCB、AMEX、Diners） 電子マネー不可 QRコード決済可 （PayPay、d払い、楽天ペイ、au PAY）,"35.67483873871048,139.73628298434102",03-5545-6314,東京都港区赤坂3-16-8 東海アネックスビル 1F,244,unagi,False,35.67483873871048,139.73628298434102,unagi
,喜代川,茅場町駅 300m , うなぎ、日本料理,,"￥15,000～￥19,999","￥15,000～￥19,999",3.51,日曜日、祝日,https://tabelog.com/tokyo/A1302/A130203/13003046/,予約可,２階のお座敷（個室）はコース料理になります。（HPコースメニュー参照）１階のテーブル席はアラカルトになります。ランチタイムもお席のご予約が可能です。,東京メトロ東西線、日比谷線茅場町駅下車徒歩5分　東京メトロ日比谷線人形町駅、半蔵門線水天宮前駅下車徒歩7分　東京メトロ東西線、銀座線日本橋駅下車徒歩８分 茅場町駅から300m,,,カード可 （VISA、Master、JCB、AMEX、Diners） 電子マネー不可,"35.68268763871967,139.78081888438905",03-3666-3197,東京都中央区日本橋小網町10-5 ,171,unagi,False,35.68268763871967,139.78081888438905,unagi
,池袋寅箱,池袋駅 649m , 居酒屋、うなぎ、日本酒バー,,"￥4,000～￥4,999","￥4,000～￥4,999",3.51,-,https://tabelog.com/tokyo/A1305/A130501/13237870/,予約可,お酒を食事を楽しんでいただくお店です。お酒の呑めない方、お車の方はご遠慮ください。入店を拒否させていただく場合もございます。※当日キャンセルはキャンセル料を頂戴いたします。,池袋西口より徒歩10分 池袋駅から649m,17:00 - 00:00L.O. 23:00,■ 定休日不定休,カード可 （VISA、Master、JCB、AMEX、Diners） 電子マネー可 （交通系電子マネー（Suicaなど））,"35.735438538663196,139.70867478497246",03-6907-0017,東京都豊島区池袋2-69-3 メゾン玉城 1F,130,unagi,False,35.735438538663196,139.70867478497246,unagi
,まほろば,内幸町駅 254m , うなぎ、居酒屋,,"￥8,000～￥9,999","￥8,000～￥9,999",3.51,土曜日、日曜日、祝日,https://tabelog.com/tokyo/A1301/A130103/13119188/,予約可,土用の丑の日前後は不可。夜のみ、貸切予約可。FAX：03-6268-8007,都営地下鉄三田線【内幸町駅】徒歩２分ＪＲ山手線・京浜東北線【新橋駅】日比谷口　徒歩４分東京メトロ銀座線【新橋駅】徒歩５分 内幸町駅から254m,11:15 - 14:00,■ 営業時間11:15～14:00(売切れ仕舞),カード可 （AMEX） 電子マネー不可 QRコード決済可 （PayPay）,"35.66780343872099,139.75526238425664",03-6268-8007,東京都港区新橋2-2-4 パイオニアビル2 1F,123,unagi,False,35.66780343872099,139.75526238425664,unagi
,うなぎ処 おお葉,神田駅 198m , うなぎ、どじょう,,"￥5,000～￥5,999","￥5,000～￥5,999",3.51,日曜日、祝日,https://tabelog.com/tokyo/A1310/A131002/13011298/,予約可,,JR神田駅徒歩３分 神田駅から198m,11:00 - 14:30,■ 定休日第2第4第5土曜日(7月は営業),カード可 （JCB、AMEX、Diners） 電子マネー不可 QRコード決済不可,"35.69117513871064,139.76934988448284",03-3254-8080,東京都千代田区内神田3-10-1 大木ビル,111,unagi,False,35.69117513871064,139.76934988448284,unagi
,小ノ孝,芝公園駅 382m , うなぎ,,-,-,3.51,-,https://tabelog.com/tokyo/A1314/A131401/13178531/,予約不可,,都営三田線芝公園駅A1出口より徒歩6分 芝公園駅から382m,,,カード不可 電子マネー不可 QRコード決済不可,"35.65191003873047,139.75332618409743",03-3453-6852,東京都港区芝2-3-20 ,93,unagi,False,35.65191003873047,139.75332618409743,unagi
,源氏,田端駅 618m , うなぎ、焼き鳥、日本料理,,"￥5,000～￥5,999","￥5,000～￥5,999",3.51,火曜日,https://tabelog.com/tokyo/A1323/A132301/13046004/,予約可,,ＪＲ山手線・京浜東北線【田端駅】徒歩10分東京メトロ千代田線【千駄木駅】徒歩13分 田端駅から618m,11:30 - 14:00,■ 営業時間11:30～14:00(売切仕舞い) 16:30～20:00(売切仕舞い)■ 定休日（（一部の水曜も休みでした（2021年3月））,カード不可 電子マネー不可,"35.73270363868067,139.75803188491022",03-3821-1006,東京都文京区本駒込4-42-3 源氏ビル,61,unagi,False,35.73270363868067,139.75803188491022,unagi
,ひつまぶし名古屋備長 マロニエゲート銀座1店,銀座一丁目駅 159m , うなぎ,モダンで落ち着いた雰囲気でいただく、極上のひつまぶし,"￥5,000～￥5,999","￥5,000～￥5,999",3.5,,https://tabelog.com/tokyo/A1301/A130101/13042857/,予約可,■当分の間、席数を減らしております。【席のご希望に添えない場合がございます。】11名さま以上の団体のご予約はお電話でお問い合わせくださいませ。【短縮営業のため営業時間をご確認のうえご利用をお願いいたします。】ベビーカーや車椅子のご利用がございましたらお知らせくださいませ。席の調整をいたします。アレルギーはございませんか？ございましたらお知らせくださいませ。,東京メトロ銀座線・丸ノ内線・日比谷線銀座駅C6出口またはA13出口 徒歩4分JR山手線・京浜東北線有楽町駅中央口 徒歩3分東京メトロ有楽町線銀座一丁目駅4番出口　徒歩1分高速バス成田空港～銀座（エアポートバス東京成田（THEアクセス成田））銀座駅バス停 徒歩4分 銀座一丁目駅から159m,11:00 - 15:00L.O. 14:30,■ 定休日マロニエゲート銀座１に準ずる■年末年始の営業日・営業時間・～12/31(火)　通常営業・1/1(水)　休業・1/2(木)～　通常営業,カード可 （VISA、Master、JCB、AMEX、Diners） 電子マネー可 （交通系電子マネー（Suicaなど）、楽天Edy、nanaco、WAON、iD） QRコード決済可 （d払い）,"35.6743219387201,139.76544748431533",03-5159-0231,東京都中央区銀座2丁目2番地14号 マロニエゲート12階,555,unagi,False,35.6743219387201,139.76544748431533,unagi
,躻,馬喰横山駅 126m , うなぎ、居酒屋、天ぷら,洗練されたお洒落な店内◆昼はうなぎをメインに夜はおつまみも充実！接待や宴会にもどうぞ,"￥4,000～￥4,999","￥4,000～￥4,999",3.5,,https://tabelog.com/tokyo/A1302/A130204/13291679/,予約可,ランチタイムは全ての曜日で予約不可,JR総武線「馬喰町」駅　東京メトロ「小伝馬町」駅都営地下鉄「馬喰横山」駅都営地下鉄「東日本橋」駅 馬喰横山駅から126m,11:30 - 15:00L.O. 14:00,■定休日無し,カード可 （VISA、Master、JCB、AMEX、Diners） 電子マネー可 （交通系電子マネー（Suicaなど）、楽天Edy、nanaco、WAON、iD、QUICPay） QRコード決済可 （PayPay、楽天ペイ、au PAY）,"35.69128353107434,139.78186256140788",03-3527-3938,東京都中央区日本橋横山町1-4 林屋ビル　,474,unagi,False,35.69128353107434,139.78186256140788,unagi
,小柳,浅草（東武・都営・メトロ）駅 250m , うなぎ、鳥料理,,"￥4,000～￥4,999","￥4,000～￥4,999",3.5,木曜日,https://tabelog.com/tokyo/A1311/A131102/13003689/,予約不可,,地下鉄銀座線浅草駅1番出口から徒歩約4分東武スカイツリーライン浅草駅より徒歩4分つくばエクスプレス浅草駅5番出口より徒歩4分 浅草駅（東武・都営・メトロ）から250m,,,カード不可 電子マネー不可 QRコード決済不可,"35.712203438705615,139.79552378467687",03-3843-2861,東京都台東区浅草1-29-11 ,424,unagi,False,35.712203438705615,139.79552378467687,unagi
,元祖 うな鐡,渋谷駅 279m , うなぎ、串焼き,,"￥4,000～￥4,999","￥4,000～￥4,999",3.5,日曜日、祝日,https://tabelog.com/tokyo/A1303/A130301/13012494/,予約不可,,京王井の頭線「渋谷駅」西口出て左へすぐ(徒歩0分) 渋谷駅から279m,11:30 - 15:00,■ 定休日年末年始　GW　お盆,カード不可 電子マネー不可 QRコード決済可 （PayPay）,"35.65856033870876,139.69841658420313",03-3461-9024,東京都渋谷区道玄坂2-8-8 コスモ渋谷館　１Ｆ,358,unagi,False,35.65856033870876,139.69841658420313,unagi
,串打ちジビエと鰻串 新宿寅箱,新宿三丁目駅 383m , 居酒屋、うなぎ、日本酒バー,,"￥4,000～￥4,999","￥4,000～￥4,999",3.5,-,https://tabelog.com/tokyo/A1304/A130401/13209079/,予約可,お酒を食事を楽しんでいただくお店です。お酒の呑めない方、お車の方はご遠慮ください。入店を拒否させていただく場合もございます。,新宿駅から徒歩約７分新宿三丁目駅 C7 C8出口より徒歩約１分 新宿三丁目駅から383m,11:30 - 14:30L.O. 14:00,■ 営業時間ランチは無くなり次第終了,カード可 （VISA、Master、JCB、AMEX、Diners） 電子マネー可 （交通系電子マネー（Suicaなど）） QRコード決済可 （PayPay）,"35.69237993869041,139.70823998453784",03-5357-7727,東京都新宿区新宿5-10-6 宮崎ビル 1F,212,unagi,False,35.69237993869041,139.70823998453784,unagi
,うなぎ藤田 東京店,豊田駅 841m , うなぎ、日本料理,,-,-,3.5,木曜日,https://tabelog.com/tokyo/A1329/A132903/13016364/,予約可,,JR豊田駅北口徒歩13分 豊田駅から841m,11:00 - 15:00,営業時間11:00頃～15:00（最終受付時間 14:00）定休日木曜日,カード可 （VISA、Master、JCB、AMEX、Diners） 電子マネー不可 QRコード決済不可,"35.66502113860169,139.375091084495",042-581-2099,東京都日野市多摩平3-7-4 ,166,unagi,False,35.66502113860169,139.375091084495,unagi
,千寿,北千住駅 224m , うなぎ,,"￥4,000～￥4,999","￥4,000～￥4,999",3.5,,https://tabelog.com/tokyo/A1324/A132402/13012272/,予約可,,北千住駅から、徒歩4分（0.3km）です。 北千住駅から224m,,,カード不可 電子マネー不可 QRコード決済不可,"35.7481659093623,139.8029990206709",03-3888-2344,東京都足立区千住1-34-4 ,164,unagi,False,35.7481659093623,139.8029990206709,unagi
,いろは亭,中野駅 343m , うなぎ、日本料理、居酒屋,,"￥5,000～￥5,999","￥5,000～￥5,999",3.5,-,https://tabelog.com/tokyo/A1319/A131902/13012868/,予約可,,ＪＲ中央線中野駅北口から 徒歩5分中野共立病院の近くにあります★①中野駅から商店街を真っ直ぐ中野ブロードウェイの入り口まで進んでいただき、入り口を入らずに右折。②突き当りを右折し、すぐに左折。③一個目を左に入っていただくと右手にございます。 中野駅から343m,17:00 - 22:00L.O. 22:00,■ 定休日年末年始,カード不可 電子マネー不可,"35.708695338666885,139.66692948473158",03-3387-4487,東京都中野区中野5-47-4 青潮ビル 1F,123,unagi,False,35.708695338666885,139.66692948473158,unagi
,泊舟,北千住駅 178m , 日本料理、豆腐料理、うなぎ,,"￥4,000～￥4,999","￥4,000～￥4,999",3.5,-,https://tabelog.com/tokyo/A1324/A132402/13009128/,予約可,コース料理のみ,北千住駅から、徒歩1分です。 北千住駅から178m,11:00 - 21:00L.O. 20:00,■ 定休日不定休（丸井に準ずる）,カード可 （VISA、Master、JCB、AMEX、Diners） 電子マネー不可 QRコード決済不可,"35.75086043868399,139.80470958506092",03-5284-3601,東京都足立区千住3-92 北千住マルイ 9F,89,unagi,False,35.75086043868399,139.80470958506092,unagi
,登川,恵比寿駅 263m , うなぎ、串焼き,,"￥10,000～￥14,999","￥10,000～￥14,999",3.5,土曜日、日曜日、祝日,https://tabelog.com/tokyo/A1303/A130302/13079474/,予約可,,東京メトロ日比谷線【恵比寿駅】徒歩３分ＪＲ山手線・埼京線【恵比寿駅】西口　徒歩４分東急東横線【代官山駅】徒歩６分 恵比寿駅から263m,,,カード可 電子マネー不可 QRコード決済不可,"35.64823873871827,139.70773048409234",03-3477-0223,東京都渋谷区恵比寿西1-15-2 アパルトマンイトウ 1F,83,unagi,False,35.64823873871827,139.70773048409234,unagi
,うなぎ大久保,北野駅 292m , うなぎ,,"￥4,000～￥4,999","￥4,000～￥4,999",3.5,-,https://tabelog.com/tokyo/A1329/A132904/13043340/,予約可,,京王北野駅より徒歩5分北野駅南口側バスロータリー方向　スーパーオートバックス隣(北野街道からは店舗が見えません) 北野駅から292m,,,カード不可 電子マネー不可,"35.64529703860667,139.3514143843124",042-637-6116,東京都八王子市打越町2003-3 ,76,unagi,False,35.64529703860667,139.3514143843124,unagi
,日本料理　時宜,東京ビッグサイト駅 461m , 日本料理、鉄板焼き,,"￥30,000～￥39,999","￥30,000～￥39,999",3.61,-,https://tabelog.com/tokyo/A1313/A131306/13048167/,完全予約制,,東京ビッグサイト駅から461m,,,カード可 （VISA、Master、JCB、AMEX、Diners） 電子マネー不可 QRコード決済可,"35.62830178157796,139.78686254623312",03-6700-1111,東京都江東区有明3-1-5 東京ベイコート倶楽部 ホテル＆スパリゾート24F,188,unagi,False,35.62830178157796,139.78686254623312,unagi
,天房,市場前駅 111m , 天ぷら、天丼、海鮮,,-,-,3.61,-,https://tabelog.com/tokyo/A1313/A131307/13227313/,予約不可,,ゆりかもめ市場前駅から徒歩2分 市場前駅から111m,,,カード不可 電子マネー不可 QRコード決済不可,"35.6447830582281,139.7859432526412",03-6633-0222,東京都江東区豊洲6-3-1 豊洲市場 5街区 青果棟 1F,181,unagi,False,35.6447830582281,139.7859432526412,unagi
,鮨南山,広尾駅 526m , 寿司、海鮮,"南麻布に佇む隠れ家で、五感で楽しめる""育成寿司""で極上のおもてなし","￥20,000～￥29,999","￥20,000～￥29,999",3.61,,https://tabelog.com/tokyo/A1307/A130703/13076593/,予約可,お苦手な食材やアレルギー等、お申し付けください。,■広尾駅徒歩：7分タクシー：4分■恵比寿駅タクシー：8分■白金高輪駅タクシー：5分■ 麻布十番タクシー：7分 広尾駅から526m,18:00 - 22:30,■ 営業時間最終入店20時半,カード可 （VISA、Master、JCB、AMEX、Diners） 電子マネー不可 QRコード決済不可,"35.64748043872405,139.72436978407302",03-3280-3454,東京都港区南麻布4-12-4 プラチナコート広尾 1F,180,unagi,False,35.64748043872405,139.72436978407302,unagi
食べログ 天ぷら 百名店 2023 選出店,天雅,中目黒駅 357m , 天ぷら、日本料理,天ぷらと日本料理で旬の美味しさを存分に楽しめる「天雅会席」,"￥20,000～￥29,999","￥20,000～￥29,999",3.61,,https://tabelog.com/tokyo/A1317/A131701/13147445/,完全予約制,※キャンセルポリシー前日キャンセル　ご予約済のお料理代金の50％当日キャンセル　ご予約済のお料理代金の100％※アレルギー食材をお持ちの方は必ず“ご予約の際”に備考欄にご記入下さい。ご同伴者様にも事前にご確認願います。ご来店後のお申し出にはご対応致しかねます。※香水等強い香りをまとってのご来店はご遠慮下さい。ご同伴者様にもお伝え願います。,東急東横線、東京メトロ日比谷線　中目黒駅より徒歩4分 中目黒駅から357m,18:00 - 22:00,■ ご予約最終入店時間 20:00■ 定休日月曜日(連休の場合あり),カード可 （VISA、Master、JCB、AMEX、Diners） 電子マネー不可 QRコード決済不可,"35.64588358366686,139.6955418209118",03-6303-4005,東京都目黒区上目黒3-16-13 キューブＭ B1F,157,unagi,False,35.64588358366686,139.6955418209118,unagi
,一即夛,乃木坂駅 609m , 日本料理,,"￥15,000～￥19,999","￥15,000～￥19,999",3.61,日曜日、祝日,https://tabelog.com/tokyo/A1307/A130701/13023340/,予約可,,乃木坂駅から609m,,,カード可 （JCB、AMEX、Diners） 電子マネー不可 QRコード決済不可,"35.661408638715166,139.7242307842138",03-3746-2877,東京都港区西麻布1-10-16 ２Ｆ,144,unagi,False,35.661408638715166,139.7242307842138,unagi
,益子,新橋駅 249m , 焼き鳥,,"￥8,000～￥9,999","￥8,000～￥9,999",3.61,-,https://tabelog.com/tokyo/A1301/A130103/13002213/,予約不可,,都営地下鉄三田線【内幸町駅】徒歩４分ＪＲ山手線ほか【新橋駅】日比谷口　徒歩４分東京メトロ銀座線【新橋駅】徒歩５分 新橋駅から249m,,,カード不可 電子マネー不可,"35.667052646253694,139.75560058059787",03-3508-8076,東京都港区新橋2-10-8 関口ビル　１Ｆ,141,unagi,False,35.667052646253694,139.75560058059787,unagi
,鉄板焼 さざんか,虎ノ門ヒルズ駅 201m , 鉄板焼き、日本料理、レストラン,【ホテル最上階】上質な食材を確かな熟練の技で。美食と美酒が奏でる心からのおもてなしを堪能,"￥20,000～￥29,999","￥20,000～￥29,999",3.61,-,https://tabelog.com/tokyo/A1308/A130802/13238559/,予約可,"◆ご予約のキャンセルは、前日までにご連絡をお願いいたします。　◆キャンセルポリシー当日のキャンセル　または　ご予約時間より30分を過ぎてご来店がない場合：コース、プラン料金の100％お席のみのご予約の場合、ランチ￥6,000 / ディナー ￥12,000 のご予約人数分",虎ノ門ヒルズ駅から201m,,,カード可 （VISA、Master、JCB、AMEX、Diners） 電子マネー不可 QRコード決済不可,"35.66708552226595,139.74552308268602",03-3505-6071,東京都港区虎ノ門2-10-4 The Okura Tokyoオークラ プレステージタワー 41F,135,unagi,False,35.66708552226595,139.74552308268602,unagi
,鮨 こまり,溜池山王駅 201m , 寿司,仲卸の経験を活かした魚に最も近い大将が紡ぎ出す“本格江戸前鮨”を堪能,"￥15,000～￥19,999","￥15,000～￥19,999",3.61,,https://tabelog.com/tokyo/A1308/A130802/13271323/,完全予約制,,【溜池山王駅方面から】溜池山王駅11番出口から徒歩１分【赤坂駅方面から】赤坂駅5番出口から徒歩３分 溜池山王駅から201m,,,カード可 （VISA、Master、JCB、AMEX、Diners） 電子マネー不可 QRコード決済不可,"35.67114553871406,139.74015848430096",03-5544-8355,東京都港区赤坂2-12-25 1F,134,unagi,False,35.67114553871406,139.74015848430096,unagi
,和食 おの寺,飯田橋駅 383m , 日本料理,四季を映した和の会席料理。熟練の技が織りなす、季節の風趣を凝らした一皿をお愉しみください。,"￥10,000～￥14,999","￥10,000～￥14,999",3.61,,https://tabelog.com/tokyo/A1309/A130905/13030807/,予約可,当店よりご確認のお電話をさしあげる場合がございます。 連絡がつかない場合、キャンセルとさせていただく場合がございます。※必ずご連絡がつく電話番号をお知らせください。また、新鮮な食材をご提供するためにも人数の変更やキャンセルが発生した場合には2日前までにご連絡くださいませ。,JR飯田橋駅西口　徒歩5分東京メトロ飯田橋駅B3　徒歩5分都営大江戸線牛込神楽坂駅A3　徒歩5分東西線神楽坂駅　徒歩10分 飯田橋駅から383m,18:00 - 22:30,■ 営業時間最終入店は21：00,カード可 （VISA、Master、JCB、AMEX、Diners） 電子マネー不可 QRコード決済不可,"35.70150523869481,139.74027458460756",03-3260-2066,東京都新宿区神楽坂3-2 神楽坂越後屋ビル　４F,130,unagi,False,35.70150523869481,139.74027458460756,unagi
,魚見茶寮,恵比寿駅 374m , 日本料理、海鮮、居酒屋,【11/26(火)空席△】11月店休日▶︎11(月 16(土 17(日 20(水 25(月 28(木,"￥10,000～￥14,999","￥10,000～￥14,999",3.61,,https://tabelog.com/tokyo/A1303/A130302/13239576/,予約可,※地図アプリ等で検索の際、裏口が表示される場合がございますのでお気をつけ下さい。店舗入口は恵比寿西一丁目五差路より渋谷方面へ約100m直進、左側(クリーニング屋さん斜め前)となります。,JR恵比寿駅から徒歩４分東急東横線代官山駅から徒歩7分ㅤ※地図アプリ等で検索の際、裏口が表示される場合がございますのでお気をつけ下さい。店舗入口は恵比寿西一丁目五差路より渋谷方面へ約100m直進、左側(クリーニング屋さん斜め前)となります。 恵比寿駅から374m,12:30 - 15:00,"■ご希望のお席がネット予約不可でもTELにてお気軽にお問い合わせください。■当日席のお問い合わせ大歓迎です。(080-7661-0552)■ 10~14名様にて貸切承ります。◾️3名様〜御予約にてランチ営業致します。(12:30スタート¥10,000コースのみ■お子様のご来店に関しましては店舗にお問い合わせをお願いいたします。",カード可 電子マネー不可 QRコード決済不可,"35.64956943871741,139.70764588410583",080-7661-0552,東京都渋谷区恵比寿西2-8-5 高麗羅ビル 1F,129,unagi,False,35.64956943871741,139.70764588410583,unagi
,鮨 竜太,乃木坂駅 216m , 寿司,,"￥15,000～￥19,999","￥15,000～￥19,999",3.61,-,https://tabelog.com/tokyo/A1307/A130701/13285051/,予約可,※キャンセルポリシー　前々日までのキャンセル→キャンセル料なし　前日のキャンセル→コース料金の50%　当日のキャンセル→コース料金の100%,乃木坂駅より徒歩約3分六本木駅より徒歩約6分 乃木坂駅から216m,12:30 - 14:30,※不定休(GW/お盆/年末年始定休)※ランチ営業も不定期となります,カード可 （VISA、Master、JCB、AMEX、Diners） 電子マネー可 （交通系電子マネー（Suicaなど）、iD、QUICPay） QRコード決済不可,"35.665813138713716,139.7284702842553",03-6680-6286,東京都港区六本木7-3-15 鈴や第二ビル B1F,77,unagi,False,35.665813138713716,139.7284702842553,unagi
,銀座 kappou ukai 肉匠,新橋駅 365m , 牛料理、日本料理,,"￥30,000～￥39,999","￥30,000～￥39,999",3.61,月曜日、日曜日,https://tabelog.com/tokyo/A1301/A130103/13269626/,予約可,<キャンセルポリシー>■コース予約の場合ご予約の前日：50％、ご予約当日：100％※8名様以上の場合は6日前よりキャンセル料30％を頂戴いたします※その他詳細は店舗へ直接お問い合わせください,・東京メトロ銀座線ご利用の方銀座駅A3出口より 徒歩5分新橋駅出口１より徒歩4分中央通り沿い、１Fのスワロフスキーが目印のビルの地下１階にございます。ビル内のエレベーターをご利用ください。※銀座には当店のほか、うかいグループの鉄板料理「銀座うかい亭」もございますのでご予約の際はご注意ください。新橋駅から364m 新橋駅から365m,12:00 - 15:00L.O. 料理13:00,■ 定休日　月曜日、火曜日、年末年始※2024年4月1日より定休日を変更させていただきました。,カード可 （VISA、Master、JCB、AMEX） 電子マネー不可 QRコード決済可 （d払い）,"35.667857391682155,139.76185696839804",03-5568-1515,東京都中央区銀座8-9-15 ジュエルボックス銀座 B1F,74,unagi,False,35.667857391682155,139.76185696839804,unagi
,ますぶち,奥沢駅 215m , 日本料理、海鮮、居酒屋,,"￥6,000～￥7,999","￥6,000～￥7,999",3.61,-,https://tabelog.com/tokyo/A1317/A131711/13169455/,予約可,電話可能でスムーズな時間帯「10時30分頃から17時」営業時間内の予約等のお問い合わせはご遠慮ください。料理一人、サービス一人の為ご理解・ご了承の程、何卒よろしくお願い致します。,東急東横線自由が丘駅より徒歩8分東急目黒線奥沢駅より　　徒歩4分東急大井町線緑が丘駅より徒歩5分奥沢神社より徒歩2分程度 奥沢駅から215m,,,カード可 （VISA、Master、JCB、AMEX、Diners） 電子マネー不可 QRコード決済不可,"35.6051963387349,139.67410068368113",03-5726-9944,東京都世田谷区奥沢2-6-9 マンション神竹 102,72,unagi,False,35.6051963387349,139.67410068368113,unagi
,栄寿司,浅草（つくばＥＸＰ）駅 488m , 寿司,,"￥10,000～￥14,999","￥10,000～￥14,999",3.61,日曜日、祝日,https://tabelog.com/tokyo/A1311/A131102/13008701/,予約可,,浅草駅（つくばＥＸＰ）から488m,18:00 - 22:00,第2.4月曜日定休日,カード可 （VISA、Master、JCB、AMEX、Diners） 電子マネー不可 QRコード決済不可,"35.71725063870262,139.79621888472738",03-3874-2303,東京都台東区浅草3-21-6 ,67,unagi,False,35.71725063870262,139.79621888472738,unagi
,野じま,銀座駅 353m , 寿司、日本料理,,"￥30,000～￥39,999","￥30,000～￥39,999",3.61,日曜日、祝日,https://tabelog.com/tokyo/A1301/A130101/13129640/,予約可,※ご予約はコースのみとなります。,東京メトロ銀座線・日比谷線・丸の内線銀座駅　C3出口より徒歩4分 銀座駅から353m,,,カード可 （VISA、Master、JCB、AMEX、Diners） 電子マネー不可,"35.67051563872098,139.76063558428024",03-6280-6703,東京都中央区銀座7-3-16 東五ビル　Ｂ１Ｆ,66,unagi,False,35.67051563872098,139.76063558428024,unagi
,鮨 季らく,武蔵小山駅 239m , 寿司、日本料理、海鮮,武蔵小山駅3分◆四季折々のお鮨を肩ひじ張らず気楽に楽しめる。ご家族のお食事から接待まで,"￥20,000～￥29,999","￥20,000～￥29,999",3.61,,https://tabelog.com/tokyo/A1317/A131710/13282373/,予約可,キャンセル：コース料金の100％キャンセル料を申し受けます。人数変更：ご予約当初の人数分のコース料金100%を頂戴いたします。,東急目黒線　武蔵小山駅から徒歩３分 武蔵小山駅から239m,17:30 - 23:00,■ 営業時間[火～土]一部：17:30～20:00二部：20:30～23:00,カード可 電子マネー不可 QRコード決済不可,"35.61913123873507,139.70238688380206",050-3149-0212,東京都品川区小山4-10-1 BE-RE武蔵小山 1F,66,unagi,False,35.61913123873507,139.70238688380206,unagi
,心米,白金高輪駅 596m , 日本料理、オーガニック,,"￥15,000～￥19,999","￥15,000～￥19,999",3.61,水曜日、土曜日,https://tabelog.com/tokyo/A1316/A131602/13191100/,,,白金高輪駅3番出口から徒歩10分 白金高輪駅から596m,18:00 - 23:30L.O. 料理22:00,移転のため10月31日で白金での営業は終了致します。11月は工事の為、休業。12月1日より南青山7－13－12南青山森ビル１階にて再スタート致します。皆様、新しい心米でお待ち致しております。ご迷惑おかけ致しますが何卒宜しくお願い致します。,カード可 （VISA、Master、JCB、AMEX、Diners） 電子マネー不可 QRコード決済不可,"35.64497803872684,139.72810118404513",,東京都港区白金3-15-16 ペガサス白金 1F　,65,unagi,False,35.64497803872684,139.72810118404513,unagi
,鮨しのぶ,恵比寿駅 632m , 寿司,,"￥15,000～￥19,999","￥15,000～￥19,999",3.61,水曜日,https://tabelog.com/tokyo/A1303/A130302/13209043/,完全予約制,ご予約について予約の取り間違えの防止の観点お電話でのご予約はお受け致しかねます。07033568877上記の電話番号へのショートメールにてご対応させて頂きます。お名前、ご予約日時、ご予約人数を明記をお願い致します。,恵比寿駅から632m,,,カード可 （VISA、Master、JCB、AMEX、Diners） 電子マネー不可 QRコード決済不可,"35.64588193872272,139.71695188406204",070-3356-8877,東京都渋谷区恵比寿2-9-4 リベルタ3 1F,65,unagi,False,35.64588193872272,139.71695188406204,unagi
,本間勝維,野方駅 240m , 寿司、海鮮,,"￥15,000～￥19,999","￥15,000～￥19,999",3.61,水曜日,https://tabelog.com/tokyo/A1321/A132104/13256630/,予約可,,野方駅南口徒歩5分 野方駅から240m,,,カード可 （AMEX） 電子マネー不可,"35.71885743865531,139.65087438484548",03-5356-2821,東京都中野区野方5-16-6 青木ハイツ 1F,64,unagi,False,35.71885743865531,139.65087438484548,unagi
,木鶏,千駄木駅 232m , 日本料理,【千駄木駅徒歩3分】◆落ち着いた隠れ家でお酒に寄り添う料理を堪能。日本酒やワインとともに,"￥15,000～￥19,999","￥15,000～￥19,999",3.61,,https://tabelog.com/tokyo/A1311/A131106/13266135/,完全予約制,電話での予約は承っておりません。ネット予約からお願いいたします。ご来店時間とお飲み物のご注文についてお願いがござます。TOPページ下方の備考欄をご確認ください。,東京メトロ千代田線千駄木駅から徒歩3分JR日暮里駅から徒歩10分 千駄木駅から232m,18:00 - 00:00,■ 営業時間11月〜全日、18時又は19時半〔日〕ランチ営業12時半一斉スタート■ 定休日月曜、火曜 (不定休あり),カード可 （VISA、Master、JCB、AMEX、Diners） 電子マネー不可 QRコード決済可 （PayPay）,"35.724392038688315,139.76550738482103",不明の為情報お待ちしております,東京都台東区谷中3-1-3 ,62,unagi,False,35.724392038688315,139.76550738482103,unagi
,うどん屋 新堀,代々木駅 132m , うどん,,"￥1,000～￥1,999","￥1,000～￥1,999",3.6,月曜日、日曜日,https://tabelog.com/tokyo/A1304/A130403/13247630/,予約不可,,JR山手線代々木駅東口から徒歩3分東京メトロ丸ノ内線新宿三丁目駅E8出口から徒歩5分小田急小田原線南新宿駅から徒歩8分 代々木駅から132m,,,カード不可 電子マネー不可 QRコード決済不可,"35.68403933869422,139.70356238445686",03-6380-4894,東京都渋谷区千駄ヶ谷5-23-9 モルフォ 1F,540,unagi,False,35.68403933869422,139.70356238445686,unagi
食べログ すき焼き・しゃぶしゃぶ 百名店 2024 選出店,ざくろ 銀座店,銀座駅 186m , しゃぶしゃぶ、すき焼き、ステーキ,,"￥8,000～￥9,999","￥8,000～￥9,999",3.6,-,https://tabelog.com/tokyo/A1301/A130101/13002261/,予約可,,地下鉄銀座駅A8出口より徒歩1分、三越と松屋の間にあります三菱UFJ銀行の地下一階です。 銀座駅から186m,11:00 - 15:00L.O. 14:30,■定休日年末年始（12/31～1/1）、休館日1月2日（木）～1月3日（金）は、11:00～16:00（LO 15:00）・17:00～21:00（LO 20:00）となります。1月4日（土）より通常と変らず営業いたします。,カード可 （VISA、Master、JCB、AMEX、Diners） 電子マネー不可 QRコード決済可 （d払い）,"35.67165563872203,139.76618888428789",03-3535-4421,東京都中央区銀座4-6-1 銀座三和ビル　Ｂ１Ｆ,516,unagi,False,35.67165563872203,139.76618888428789,unagi
,めしや ヒロキ倶楽部 新宿,新宿西口駅 196m , 居酒屋、日本料理、日本酒バー,【新宿駅徒歩3分】西新宿の路地裏に佇む粋な居酒屋,"￥5,000～￥5,999","￥5,000～￥5,999",3.6,,https://tabelog.com/tokyo/A1304/A130401/13282540/,予約可,※混雑時は2時間制とさせて頂く場合がございます。※月〜金・祝前日は18:00までの入店と20:30以降の入店のみネット予約を承っております。また、土日祝日は16:00〜/18:15〜/20:30〜以降の入店のみネット予約を承っております。※ご予約後のキャンセル・内容変更は必ずお電話でお願い致します。ご理解とご協力のほど、よろしくお願い致します。,JR 新宿駅西口　徒歩5分西武新宿線　西武新宿駅  徒歩3分 新宿西口駅から196m,17:00 - 23:00L.O. 料理22:00 ドリンク22:30,■ 営業時間■貸し切り予約承ってます。ご予算やご要望などお気軽にお申し付けください。■ 定休日無/領収書にインボイス番号を印字しております。,カード可 （VISA、Master、JCB、AMEX、Diners） 電子マネー不可 QRコード決済不可,"35.69379681729711,139.69698032876445",03-5937-1940,東京都新宿区西新宿7-12-24 第二小島ビル 1F,506,unagi,False,35.69379681729711,139.69698032876445,unagi
,おにやんま 御茶ノ水店,御茶ノ水駅 31m , うどん,,～￥999,～￥999,3.6,-,https://tabelog.com/tokyo/A1310/A131002/13252677/,予約不可,,御茶ノ水駅から31m,,,カード可 （VISA、Master、JCB、AMEX、Diners） 電子マネー可 （交通系電子マネー（Suicaなど）、楽天Edy、nanaco、WAON、iD） QRコード決済可 （PayPay、d払い、楽天ペイ、au PAY）,"35.69934693870408,139.76511248456833",不明の為情報お待ちしております,東京都千代田区神田駿河台4-5 ,491,unagi,False,35.69934693870408,139.76511248456833,unagi
,恵比寿 米ル,代官山駅 319m , 日本料理,秋の食材を取り入れたコースメニューになりました！！お気軽にお問い合わせください,"￥8,000～￥9,999","￥8,000～￥9,999",3.6,,https://tabelog.com/tokyo/A1303/A130302/13211399/,予約可,,恵比寿駅西口より　徒歩5分　1Ｆが　イタリアン　セル サル サーレ　右の階段で地下へ　降りて下さいませ。　看板は一切ございません。 代官山駅から319m,17:00 - 23:00,■定休日年末年始,カード可 （VISA、Master、JCB、AMEX、Diners） 電子マネー不可 QRコード決済不可,"35.648720038717734,139.70701308409767",03-6416-9637,東京都渋谷区恵比寿西1-16-7 HAGIWARA BLDG.7 B1F,457,unagi,False,35.648720038717734,139.70701308409767,unagi
食べログ すき焼き・しゃぶしゃぶ 百名店 2024 選出店,松阪牛 よし田,初台駅 175m , すき焼き、しゃぶしゃぶ、鉄板焼き,松阪牛と四季折々の厳選食材の美味しさをご堪能！,"￥20,000～￥29,999","￥20,000～￥29,999",3.6,,https://tabelog.com/tokyo/A1318/A131807/13188515/,予約可,当店でご利用いただけます緑色の商品券ですが12月中はご利用いただけませんご理解の程よろしくお願いいたします,電車：京王新線「初台」駅 東口より徒歩１分お車：首都高速４号新宿線「新宿ランプ」より５分 初台駅から175m,11:30 - 14:30L.O. 14:00,"■ 営業時間Lunch （コースL.O.13:30）※ご予約は、ランチコース（5,800円,9,100円）とディナーコース（11,000円、16,000円、21,000円）のみ承っております。■ 定休日年中無休(年末年始、ビル休館日を除く)※土日祝は企業様の貸切が多くございますので、ご了承くださいませ。",カード可 （VISA、Master、JCB、AMEX、Diners、UnionPay） 電子マネー可 （交通系電子マネー（Suicaなど）） QRコード決済不可,"35.68299668396941,139.68682389173557",03-5358-5401,東京都新宿区西新宿3-20-2 東京オペラシティタワー 53階,452,unagi,False,35.68299668396941,139.68682389173557,unagi
,伊豆の旬 やんも 丸の内店,有楽町駅 289m , 日本料理、海鮮、居酒屋,毎日仕入れる伊豆直送の新鮮な魚介や季節の逸品を、全国の地酒と供に堪能する。個室完備,"￥10,000～￥14,999","￥10,000～￥14,999",3.6,,https://tabelog.com/tokyo/A1301/A130102/13004075/,予約可,滞在時間1時間以上ご利用できます。,JR山手線・京葉線「東京駅」 丸の内6番出口 直結（地下道）JR山手線「有楽町駅」 東京国際フォーラム出口 徒歩5分地下鉄日比谷線「日比谷駅」徒歩7分 地下鉄有楽町線「有楽町駅」・千代田線「二重橋前駅」徒歩4分 有楽町駅から289m,,,カード可 （VISA、Master、JCB、AMEX、Diners） 電子マネー可 （交通系電子マネー（Suicaなど）） QRコード決済可 （PayPay、楽天ペイ、au PAY）,"35.67749963871701,139.76213598434975",03-5224-3322,東京都千代田区丸の内3-3-1 新東京ビル B1F,425,unagi,False,35.67749963871701,139.76213598434975,unagi
食べログ 食堂 百名店 2024 選出店,京粕漬 魚久  銀座店,東銀座駅 203m , 食堂、海鮮,東銀座駅2分◆芯まで味をしみ込ませた魚久自慢の「京粕漬」。伝統の味をランチで気軽に賞味,-,-,3.6,土曜日、日曜日、祝日,https://tabelog.com/tokyo/A1301/A130101/13005687/,予約不可,予約受けておりません,都営地下鉄浅草線東銀座駅から徒歩約2分（A2）東京メトロ日比谷線東銀座駅から徒歩約2〜3分（A8）東京メトロ日比谷線・銀座線銀座駅から徒歩約2〜3分（A12） 東銀座駅から203m,11:00 - 14:00,■ 定休日年末年始（12/28～1/5までお休みさせて頂きます。） 正月三箇日,カード可 （VISA、Master、JCB、AMEX、Diners） 電子マネー可 （交通系電子マネー（Suicaなど）、iD） QRコード決済不可,"35.67111936924069,139.76782465592828",03-6226-3395,東京都中央区銀座3-10-15 東銀2ビル 2F,420,unagi,False,35.67111936924069,139.76782465592828,unagi
,二代目 甚八,本郷三丁目駅 423m , うどん、カレーうどん、郷土料理,,"￥1,000～￥1,999","￥1,000～￥1,999",3.6,日曜日、祝日,https://tabelog.com/tokyo/A1310/A131004/13121200/,予約不可,,・都営大江戸線「本郷三丁目」駅(５番出口)より、徒歩６分・東京メトロ丸ノ内線「本郷三丁目」駅(２番出口)より、徒歩７分・東京メトロ千代田線「湯島」駅(５番出口)より、徒歩８分・JR中央線「御茶ノ水」駅(御茶ノ水橋口)より、徒歩９分 本郷三丁目駅から423m,11:00 - 16:00L.O. 15:30,■ 定休日2022.10.1～日曜、祝日定休日,カード可 （VISA、Master、AMEX） 電子マネー可 （交通系電子マネー（Suicaなど）、iD、QUICPay） QRコード決済不可,"35.70540723869998,139.76430448463012",03-3868-2819,東京都文京区本郷3-22-9 真鍋ビル 1F,403,unagi,False,35.70540723869998,139.76430448463012,unagi
,築地 すし Omakase,築地駅 397m , 寿司、日本料理、海鮮,築地で高級店の鮨を抜群のコスパで。元寿司学校の講師が創る鮨の新しい形を・・・,"￥10,000～￥14,999","￥10,000～￥14,999",3.6,,https://tabelog.com/tokyo/A1313/A131301/13243089/,予約可,"カウンターの予約はホームページからのネット予約又は電話での予約に限りお取りします。各種サイトより備考にてカウンター希望を出しても承れませんのでご了承ください。尚、携帯キャリアメール（Docomo,au,softbank)等の場合は予約確定メールがフィルターにより届かない場合がございます。gmailやyahooメールなどの各種フリーメールでの登録を推奨いたします。",日比谷線【築地駅】から徒歩7分大江戸線【築地市場駅】から徒歩7分大江戸線【勝どき駅】から徒歩11分有楽町線【新富町駅】から徒歩12分 築地駅から397m,12:00 - 13:30L.O. 13:15,■ 営業時間12:00-13:30（12:00一斉スタート）16:00:21:30（last in19:30）早い時間に予約のない日は予約に合わせて開店します。■ 定休日不定休,カード可 （VISA、Master、JCB、AMEX、Diners） 電子マネー可 （交通系電子マネー（Suicaなど）、iD、QUICPay） QRコード決済不可,"35.66461763872819,139.7714957842131",03-6260-6416,東京都中央区築地6-24-8 ,250,unagi,False,35.66461763872819,139.7714957842131,unagi
,ケンゾーエステイトワイナリー 六本木ヒルズ店,六本木駅 432m , フレンチ、日本料理、ワインバー,世界を席巻する高品質ワインをグラス１杯から,"￥20,000～￥29,999","￥20,000～￥29,999",3.6,,https://tabelog.com/tokyo/A1307/A130701/13162087/,予約可,"※お飲み物はワインのみとなります。※苦手な食材やアレルギーなどは事前にご連絡ください。■お席のみのご予約に関しまして、当日無連絡、あるいはご予約の時刻より30分以上経過した場合、原則キャンセル扱いとさせていただきます。11,000円×予約人数分のキャンセル料を申し受けます。■コースでのご予約の場合、当日キャンセルおよび無連絡でのキャンセルの場合は、代金の100％を申し受けます。",東京メトロ日比谷線「六本木駅」より徒歩6分都営地下鉄大江戸線「六本木駅」より徒歩8分都営地下鉄大江戸線「麻布十番駅」より徒歩8分 六本木駅から432m,11:30 - 23:00L.O. 料理22:00 ドリンク22:30,■ 営業時間[1階 カウンターフロア]11:30〜23:00 (L.O.22:00)[2階 レストランフロア]17:00〜22:00 (L.O.21:00),カード可 （VISA、Master、JCB、AMEX、Diners） 電子マネー可 （交通系電子マネー（Suicaなど）、楽天Edy、iD、QUICPay） QRコード決済可 （PayPay、d払い、楽天ペイ、au PAY）,"35.65884663871881,139.73056468418346",03-3408-1215,東京都港区六本木6-12-4 六本木ヒルズレジデンスD棟 1F・2F,237,unagi,False,35.65884663871881,139.73056468418346,unagi
,なだ万 シャングリ・ラ ホテル 東京店,東京駅 242m , 日本料理、寿司、鉄板焼き,美景広がる29Fの高層階で、鉄板焼きと職人技光る握りたての寿司をコースやアラカルトで堪能。,"￥20,000～￥29,999","￥20,000～￥29,999",3.6,,https://tabelog.com/tokyo/A1302/A130201/13072617/,予約可,※お食事券、金券扱いのチケットにて販売プランをご利用いただくことが出来ません。チケットをご利用のお客様はお電話にてご予約下さい。※鉄板焼きカウンター席のみ、未就学児のお子様のご入店はご遠慮いただいております。,東京駅【日本橋口】から徒歩2分 東京駅から242m,11:30 - 15:00L.O. 14:00,■ 営業時間Lunch　11:30～15:00（L.O.14:00）Dinner　17:30～22:00（L.O.21:00）※土日・祝日はアフタヌーンティー営業(前日までの要予約)15:00～17:00(L.O.16:30)※10/1～12/28まで、定休日の水曜・木曜は「WASAポップアップメニュー」のみ提供しております。 (①17:30～19:30、②20:00～22:00),カード可 （VISA、Master、JCB、AMEX、Diners） 電子マネー不可 QRコード決済不可,"35.682379538716255,139.7694409843939",03-6739-7899,東京都千代田区丸の内1-8-3 丸の内トラストタワー本館 シャングリ・ラ ホテル 東京 29F,235,unagi,False,35.682379538716255,139.7694409843939,unagi
,中清 吉祥寺,吉祥寺駅 758m , そば、居酒屋、日本酒バー,,～￥999,～￥999,3.6,水曜日,https://tabelog.com/tokyo/A1320/A132001/13015907/,予約可,,JR中央線/総武線・京王井の頭線 吉祥寺駅、徒歩15分 吉祥寺駅から758m,11:30 - 15:00,■ 定休日月1回木曜,カード不可 電子マネー不可 QRコード決済不可,"35.7088421386376,139.57524878479734",0422-21-2891,東京都武蔵野市吉祥寺本町4-4-15 ,233,unagi,False,35.7088421386376,139.57524878479734,unagi
,赤坂 鮨 ふくなが,赤坂見附駅 238m , 寿司、海鮮、日本酒バー,旬食材で仕上げる至極の一貫。青森の料理や銘酒とともに。,"￥15,000～￥19,999","￥15,000～￥19,999",3.6,,https://tabelog.com/tokyo/A1308/A130801/13266343/,予約可,【20時以降ご予約のお客様へ】お席のご準備にお時間を頂く場合がございます。ご了承頂ますようお願い申し上げます。【貸切ご予約の方へ】ご予約の際はお電話にてお問い合わせください。,赤坂見附駅から徒歩4分千代田線赤坂駅から徒歩6分 赤坂見附駅から238m,17:00 - 23:00,■ 営業時間最終入店21:00,カード可 （VISA、Master、JCB、AMEX、Diners） 電子マネー可 （交通系電子マネー（Suicaなど）、iD、QUICPay） QRコード決済可 （PayPay、d払い、楽天ペイ、au PAY）,"35.67455223871088,139.7369739843376",03-6277-7118,東京都港区赤坂3-15-14 ,226,unagi,False,35.67455223871088,139.7369739843376,unagi
,魚がし 福ちゃん 2号店,渋谷駅 260m , 立ち飲み、海鮮,,"￥6,000～￥7,999","￥6,000～￥7,999",3.6,-,https://tabelog.com/tokyo/A1303/A130301/13067049/,予約不可,,京王井の頭線【渋谷駅】西口　徒歩１分ＪＲ山手線他【渋谷駅】徒歩４分東京メトロ銀座線【渋谷駅】徒歩５分東京メトロ半蔵門線、東急田園都市線【渋谷駅】徒歩６分東京メトロ副都心線、東急東横線【渋谷駅】徒歩８分 渋谷駅から260m,,,カード不可 電子マネー不可 QRコード決済不可,"35.6578309387093,139.69866018419555",03-3476-4476,東京都渋谷区道玄坂1-11-8 ,206,unagi,False,35.6578309387093,139.69866018419555,unagi
,鳥佳,恵比寿駅 190m , 焼き鳥、鳥料理,ビブグルマン選出店の焼鳥とワインのマリアージュ,"￥15,000～￥19,999","￥15,000～￥19,999",3.6,水曜日、日曜日,https://tabelog.com/tokyo/A1303/A130302/13175733/,完全予約制,・完全予約制となっております。・御予約は予約サイト『OMAKASE』ウェブ予約で承っております。※お席に空きがある場合はお電話でもご予約可能でございます。お気軽にお問合せください。,恵比寿駅西口より駒沢通り出てケンタッキーとサンマルクの間を30秒ほど歩いていただくと、右側の2階にございます。 恵比寿駅から190m,17:00 - 22:45,■ 営業時間1部/17:00～19:30または17:15～19:452部/20:00～22:30または20:15～22:45※2時間半制を取らせて頂いております。,カード可 電子マネー不可 QRコード決済不可,"35.64763611755919,139.70821374337552",03-6455-3859,東京都渋谷区恵比寿西1-8-13 エムロード戸田 2F,205,unagi,False,35.64763611755919,139.70821374337552,unagi
,銀座 鮨 佑,東銀座駅 226m , 寿司、日本料理、海鮮,国内有数のマグロ仲卸を使うなど、食材に妥協なし。大将の気さくな人柄で著名人も通う江戸前鮨。,"￥30,000～￥39,999","￥30,000～￥39,999",3.6,,https://tabelog.com/tokyo/A1301/A130101/13279494/,予約可,・キャンセルポリシーにつきまして==================2日前 コース料金 50%前日・当日 コース料金 100%==================・連絡が繋がらず、予約時間から30分経過(超過)した場合は、自動的にキャンセルとなりますのでご了承ください。,東京メトロ銀座線「銀座」駅より徒歩5分東京メトロ丸ノ内線「銀座」駅より徒歩5分東京メトロ日比谷線「東銀座」駅より徒歩3分東京メトロ日比谷線「銀座」駅より徒歩5分都営浅草線「東銀座」駅より徒歩3分 東銀座駅から226m,11:30 - 13:45,"■ 営業時間【ランチ】1部：11時半～12時半2部：12時45分～13時45分※12:30でご予約の場合は12:45にご来店ください。※ If you have a reservation at 12:30, please arrive at 12:45.※2024/5/1～下記営業時間となります。【ディナー】1部：18時～20時2部：20時半～22時半",カード可 （VISA、Master、JCB、AMEX、Diners） 電子マネー不可 QRコード決済可 （d払い）,"35.67027123872399,139.7695998842715",03-6264-0165,東京都中央区銀座3-14-17 コビキス銀座 B1F,189,unagi,False,35.67027123872399,139.7695998842715,unagi
,SHE meguro,不動前駅 478m , アジア・エスニック、餃子、寿司,「一日の始まりや終わりをちょっと素敵にする」大人の隠れ家,"￥8,000～￥9,999","￥8,000～￥9,999",3.6,,https://tabelog.com/tokyo/A1317/A131710/13248858/,予約可,"【要注意】①ディナータイムは20才未満のお客様のご来店をご遠慮いただいております。②ネット予約を頂きましても、座席指定はできません。【サービス料】1Fディナー：500円/名、3Fディナー：1000円/名、全フロアー：閉店時間以降の滞在：別途/１名様1,000円/h　【ネット予約料】1Fランチ：110円/名、3Fランチ：500円/名",【目黒駅】　徒歩７分（ＪＲ山手線、東急目黒線、三田線、南北線）【不動前駅】徒歩７分（東急目黒線） 不動前駅から478m,11:30 - 14:30L.O. 14:00,【ランチ】毎日営業、【ディナー】定休日@㈪㈫、【祝日】通常営業日通り、【特記事項】ディナータイムは未成年者のご来店をご遠慮頂いております。また、全時間帯にてカフェ営業はしておりません。,カード可 （VISA、Master、JCB、AMEX、Diners） 電子マネー可 （交通系電子マネー（Suicaなど）、iD、QUICPay） QRコード決済可 （PayPay、d払い、楽天ペイ、au PAY）,"35.62905083873316,139.71617338389262",03-6303-9441,東京都品川区上大崎4-5-31 ,184,unagi,False,35.62905083873316,139.71617338389262,unagi
食べログ すき焼き・しゃぶしゃぶ 百名店 2024 選出店,人形町 今半 東京ガーデンテラス紀尾井町店,永田町駅 120m , すき焼き、しゃぶしゃぶ,,"￥20,000～￥29,999","￥20,000～￥29,999",3.6,-,https://tabelog.com/tokyo/A1308/A130803/13199422/,予約可,,東京メトロ南北線、半蔵門線、有楽町線　永田町駅　9a出口直結 永田町駅から120m,11:00 - 15:00,■ 営業時間15:00～17:00準備中■ 定休日不定休(紀尾井テラスに準ずる),カード可 （JCB、AMEX） 電子マネー可,"35.67922043870829,139.73816648438392",03-3237-5800,東京都千代田区紀尾井町1-3 東京ガーデンテラス紀尾井町 紀尾井テラス 3F,138,unagi,False,35.67922043870829,139.73816648438392,unagi
,熟成鮨 万,広尾駅 908m , 寿司,シャリと言う食材を お魚と言うソースで食べると言う独自の感性の新しいお鮨の形,"￥30,000～￥39,999","￥30,000～￥39,999",3.6,日曜日,https://tabelog.com/tokyo/A1303/A130301/13225998/,完全予約制,ご予約は、お電話またはインターネットの予約サイト(tablecheck)からお願いいたします。Please make your reservation through tablecheck (online).,JR恵比寿駅・東京メトロ広尾駅より徒歩20分タクシー5分 広尾駅から908m,18:00 - 00:00,■ 営業時間【第１部】18:00〜20:30【第２部】20:45〜23:15御案内開始【第１部】17:55【第２部】20:40※第1部の最終入店時刻は18:15です。※第2部の最終入店時刻は21:00です。,カード可 （VISA、Master、JCB、AMEX、Diners） 電子マネー不可 QRコード決済不可,"35.656406138715035,139.71383348417052",050-1807-6857,東京都渋谷区東4-6-5 ヴァビル 301,136,unagi,False,35.656406138715035,139.71383348417052,unagi
,東白庵 かりべ,千歳烏山駅 539m , そば、天ぷら、バー,,"￥6,000～￥7,999","￥6,000～￥7,999",3.6,水曜日,https://tabelog.com/tokyo/A1318/A131809/13240194/,予約可,,千歳烏山駅から539m,,,カード可 電子マネー不可 QRコード決済不可,"35.66349283867523,139.60297628431985",03-6879-8998,東京都世田谷区粕谷4-23-19 ,134,unagi,False,35.66349283867523,139.60297628431985,unagi
,らんまん,中野駅 230m , 居酒屋、海鮮、日本料理,,"￥6,000～￥7,999","￥6,000～￥7,999",3.6,水曜日,https://tabelog.com/tokyo/A1319/A131902/13013556/,予約可,,ＪＲ中央線、東京メトロ東西線【中野駅】北口　徒歩３分 中野駅から230m,,,カード可 （VISA、Master、JCB、AMEX、Diners） 電子マネー不可 QRコード決済不可,"35.70785283866708,139.66585858472385",03-3387-0031,東京都中野区中野5-59-10 ,131,unagi,False,35.70785283866708,139.66585858472385,unagi
,わくい亭,本所吾妻橋駅 506m , 居酒屋、海鮮、洋食,,"￥5,000～￥5,999","￥5,000～￥5,999",3.6,日曜日、祝日,https://tabelog.com/tokyo/A1312/A131203/13003579/,予約可,土曜日は予約不可,本所吾妻橋駅から506m,,,カード不可 電子マネー不可 QRコード決済不可,"35.70400473871365,139.80441058458783",03-3829-3751,東京都墨田区本所3-22-12 ,127,unagi,False,35.70400473871365,139.80441058458783,unagi
,味農家,新御徒町駅 498m , 日本料理、野菜料理,,"￥8,000～￥9,999","￥8,000～￥9,999",3.6,,https://tabelog.com/tokyo/A1311/A131101/13074417/,完全予約制,食べられない食品、他ご要望がございましたら、お店までご連絡下さい。(メニュー詳細は当店ホームページにてご確認頂けます。,都営大江戸線又はつくばエクスプレス　新御徒町駅Ａ４出口から徒歩８分ＪＲ総武線　浅草橋駅西口から徒歩１２分 新御徒町駅から498m,11:30 - 14:00L.O. 料理12:30 ドリンク13:30,■ 定休日月末2日,カード可 （VISA、Master、JCB、AMEX、Diners） 電子マネー可 （交通系電子マネー（Suicaなど）、楽天Edy、nanaco、WAON、iD、QUICPay） QRコード決済可 （楽天ペイ、au PAY）,"35.702505738707536,139.78222728458826",03-3866-3795,東京都台東区鳥越1-5-5 ,120,unagi,False,35.702505738707536,139.78222728458826,unagi
,銀座焼とり 京丹波,内幸町駅 390m , 焼き鳥,銀座にNEW OPEN 京丹波町産の高坂鶏が味わえる焼鳥専門店。,"￥15,000～￥19,999","￥15,000～￥19,999",3.6,,https://tabelog.com/tokyo/A1301/A130101/13296134/,予約可,※コースは2時間制となります。※予約時(Webなど)のお席詳細の指定はお受けしておりません。※お店に要望がある場合は必ずお電話下さい。（コメントですとお店からの確認連絡が出来ない場合があるのでご了承下さい）,銀座駅：300m日比谷駅：300m 内幸町駅から390m,17:00 - 23:00L.O. 料理21:00 ドリンク22:30,■ 定休日年末年始,カード可 （VISA、Master、JCB、AMEX、Diners） 電子マネー不可 QRコード決済不可,"35.67074733872064,139.76001158428303",03-6263-9156,東京都中央区銀座7-2-18 銀座グランベルスクエア 201,120,unagi,False,35.67074733872064,139.76001158428303,unagi
食べログ 寿司 TOKYO 百名店 2022 選出店,寿司 いずみ,武蔵小山駅 742m , 寿司,,"￥20,000～￥29,999","￥20,000～￥29,999",3.6,月曜日,https://tabelog.com/tokyo/A1317/A131702/13018559/,完全予約制,,目黒駅タクシー8分。徒歩30分武蔵小山駅徒歩15分 武蔵小山駅から742m,18:30 - 00:00,■ 営業時間18:30～24:00くらいまで■ 定休日不定休有り,カード不可 電子マネー不可,"35.626609238729934,139.70118348387842",03-3793-9150,東京都目黒区下目黒6-6-9 ,119,unagi,False,35.626609238729934,139.70118348387842,unagi
,鳥つき,恵比寿駅 189m , 焼き鳥,「温故知新」目、舌、おなかが喜ぶボーダレスコースをお楽しみください,"￥10,000～￥14,999","￥10,000～￥14,999",3.6,月曜日、火曜日,https://tabelog.com/tokyo/A1303/A130302/13282048/,完全予約制,・完全予約制となっております。・御予約は予約サイト『OMAKASE』ウェブ予約で承っております。※お席に空きがある場合はお電話でもご予約可能でございます。お気軽にお問合せください。,恵比寿駅西口より駒沢通り出てケンタッキーとサンマルクの間を30秒ほど歩いていただくと、右側の2階にございます。恵比寿駅から187m 恵比寿駅から189m,17:00 - 22:45,■ 営業時間1部/17:00～19:30または17:15～20452部/20:00～22:30または20:15～22:45※2時間半制を取らせて頂いております。,カード可 電子マネー不可 QRコード決済不可,"35.64765523871881,139.70822998408607",03-6433-7505,東京都渋谷区恵比寿西1-8-13 エムロード戸田 2F,118,unagi,False,35.64765523871881,139.70822998408607,unagi
,舟町一期,四谷三丁目駅 226m , 居酒屋、日本料理、鍋,～四谷三丁目駅から徒歩3分～ 「料理人の家にようこそ」和食にとらわれない創作料理の虜に…。,"￥8,000～￥9,999","￥8,000～￥9,999",3.6,,https://tabelog.com/tokyo/A1309/A130903/13151989/,予約可,※5名様以上のご予約に関しましては、ネット予約に対応致しておりません。お店に直接お電話にてお問い合わせください。※苦手食材やアレルギー等は事前にご連絡下さい。来店後では対応できないこともございます。※期間限定鍋と期間限定コースは事前のご予約が必要となります（2名様から）。また仕入れの関係上ネット予約は2日前までしか対応しておりません。前日以降で限定鍋ご希望の方は直接お電話ください。,地下鉄丸ノ内線「四谷三丁目駅」より徒歩3分都営新宿線「曙橋駅」より徒歩5分 四谷三丁目駅から226m,17:00 - 23:00L.O. 22:00,■ 営業時間その日の営業状況、予約の状況により変更や早閉めすることがあり。■ 定休日不定休(HPに記載),カード可 （VISA、Master、JCB、AMEX、Diners） 電子マネー不可 QRコード決済不可,"35.68979693869634,139.7217247845023",03-6273-0277,東京都新宿区舟町5-25 TSIFUNAMACHI 3F,117,unagi,False,35.68979693869634,139.7217247845023,unagi
,すず木,新富町駅 111m , 日本料理,,"￥15,000～￥19,999","￥15,000～￥19,999",3.6,-,https://tabelog.com/tokyo/A1313/A131301/13119576/,予約可,,メトロ有楽町線新富町駅徒歩約2分 新富町駅から111m,,,カード可 （Master、JCB、AMEX、Diners） 電子マネー不可,"35.67031163872488,139.77253888426984",03-3543-1711,東京都中央区築地1-3-2 高嶋ビル1F,60,unagi,False,35.67031163872488,139.77253888426984,unagi
,京料理 阿うん,代々木公園駅 327m , 日本料理,アラカルトでのご利用も可能となりました。,"￥10,000～￥14,999","￥10,000～￥14,999",3.6,日曜日,https://tabelog.com/tokyo/A1303/A130301/13230258/,予約可,・お電話は音声案内に従いネット予約は①、店舗に繋げる場合は②を押して下さい。営業中等出られない場合がございます。,【小田急線、代々木八幡駅】→改札を出て直進、突き当り山手通りを左折、3分程歩くと富ヶ谷交差点がありますので、歩道橋を渡ってそのまま直進、肉のハナマサさん(スーパー)が左に見えたらそこから1分足らずで着きます。緑の垣根と袖看板が目印になります。【千代田線、代々木公園駅】→八幡方面出口(別の出口だと遠回りになります)を出て右に少し歩くと、線路の上に山手通り(緑の歩道橋のようなもの)が見えますので、左側に見える階段を上ってください。山手通りに出ましたら左折、そのあとは上記代々木八幡駅からの行き方と同じです。どちらの駅からも徒歩7～8分程で、お店は山手通りに面しています。 代々木公園駅から327m,17:00 - 23:00,※定休日は日曜日の他、年末年始や臨時休業がございます。■最終入店■月曜～金曜コース(前日までの要予約)/19:30、アラカルト20:30土曜／祝日コース(前日までの要予約)/19:00、アラカルト19:30ーーーーーーーーーーーー短い時間でもよろしければ遅い時間の入店が可能な日もございますので、当日お気軽にお電話くださいませ。(1ドリンク制、お席料別途600円頂戴しております)売り切れが多く出た時など早目に閉める場合がございますので、ご来店前にお問い合わせいただけますと幸いです。,カード可 （VISA、Master、JCB、AMEX、Diners） 電子マネー不可 QRコード決済不可,"35.66662623870038,139.68819238429177",050-3628-6763,東京都渋谷区富ヶ谷1-33-6 代々木パークサイド B1F,53,unagi,False,35.66662623870038,139.68819238429177,unagi
,蕎麦割烹 ながの,曳舟駅 186m , そば、日本料理,,"￥6,000～￥7,999","￥6,000～￥7,999",3.6,,https://tabelog.com/tokyo/A1312/A131203/13296654/,予約可,当店、全ての席を入れても１４席と限られた席数で営業しております。１名様のご予約の場合、カウンター席をご希望ください。　　また、テーブル席でもご予約は承りますが、当日の混雜状況によって、カウンター席でのご用意になることもございます。ご了承の上、ご予約ください。当店では、香りの強い香水をつけている方の入店をお断りさせて頂いております。,曳舟駅から徒歩4分 曳舟駅から186m,,,カード可 電子マネー可 QRコード決済可,"35.71925504464832,139.81500018841743",03-6675-0167,東京都墨田区東向島2-20-6 ,46,unagi,False,35.71925504464832,139.81500018841743,unagi
,四季彩ダイニング　春,日野駅 237m , 居酒屋、日本料理,,"￥8,000～￥9,999","￥8,000～￥9,999",3.6,月曜日,https://tabelog.com/tokyo/A1329/A132903/13115608/,予約可,【※ご予約の前にご確認ください　】お一人様あたり一律3000円のキャンセル料が発生いたします。尚ご都合が悪くなり、一回限りのリスケジュールは2週間以内であればキャンセル料は発生いたしません。※席のみ予約される方はご予算に応じた季節のお献立ご用意しております。ご了承ください。,JR中央線日野駅より徒歩3分 日野駅から237m,17:30 - 23:00L.O. 21:00,■ 定休日お正月営業については直接お電話にて店舗にお問い合わせください。,カード可 （VISA、Master、AMEX） 電子マネー不可 QRコード決済可 （PayPay）,"35.68081843859733,139.3928956846421",042-514-9188,東京都日野市栄町1-2-1 七和ビル１０１,44,unagi,False,35.68081843859733,139.3928956846421,unagi
,惣菜 ふじやま,麻布十番駅 248m , 日本料理,,"￥10,000～￥14,999","￥10,000～￥14,999",3.6,月曜日、祝日,https://tabelog.com/tokyo/A1307/A130702/13289536/,予約可,,東京メトロ南北線 麻布十番駅 5a.5b番出入口から徒歩6分都営大江戸線麻布十番駅 7番出入口から徒歩3分 麻布十番駅から248m,,,カード可 （VISA、Master、JCB、AMEX、Diners） 電子マネー可 （交通系電子マネー（Suicaなど）、QUICPay） QRコード決済可 （PayPay）,"35.65649338596079,139.7332893086032",03-5962-5362,東京都港区麻布十番2-5-14 MY CORNERビル 4F,37,unagi,False,35.65649338596079,139.7332893086032,unagi
,鮨 うがつ,三軒茶屋駅 962m , 寿司,,"￥20,000～￥29,999","￥20,000～￥29,999",3.6,-,https://tabelog.com/tokyo/A1317/A131706/13250868/,完全予約制,,東急田園都市線「三軒茶屋駅」南口Bより徒歩15分東急東横線「学芸大学駅」より徒歩17分 三軒茶屋駅から962m,,,カード可 （VISA、Master、JCB、AMEX、Diners） 電子マネー不可,"35.63540073871591,139.6747040839858",03-5787-5155,東京都世田谷区下馬3-11-10 三吉ビル 1F,37,unagi,False,35.63540073871591,139.6747040839858,unagi
,箱崎町すみと,水天宮前駅 335m , 寿司,,"￥30,000～￥39,999","￥30,000～￥39,999",3.6,-,https://tabelog.com/tokyo/A1302/A130204/13289839/,予約可,,水天宮前駅から335m,17:30 - 22:30,■ 定休日不定休前日までの予約で昼営業あり11:30〜14:30,カード可 電子マネー不可 QRコード決済可,"35.67994360698375,139.78695585811317",03-3527-2220,東京都中央区日本橋箱崎町27-2 渡菊第三ビル B1F,31,unagi,False,35.67994360698375,139.78695585811317,unagi
食べログ とんかつ 百名店 2024 選出店,かつ吉 渋谷店,渋谷駅 311m , とんかつ、日本料理、居酒屋,【渋谷駅徒歩2分】伝統製法を守るとんかつ専門店です。,"￥2,000～￥2,999","￥2,000～￥2,999",3.59,,https://tabelog.com/tokyo/A1303/A130301/13004792/,予約可,●お席の場所、席種の指定はお受けしておりません。●エレベーター、お子様向けの設備、ベビーカーの入る席などご用意ありません。●全席禁煙です。喫煙スペースのご用意はございません。●個別でのお会計をご希望の際は現金でのお支払いのみのお取り扱いとさせていただいております。●ご予約時間を15分過ぎてご連絡がない場合やむを得ずキャンセル扱いとさせていただく場合がございますので必ずご連絡下さい。,渋谷駅、駅近辺より最寄の階段より地下道に下り、案内板を参考に『C2(渋谷ストリーム方面)』出口よりエスカレーターにて地上へ向かって下さい。エスカレーターを降りた向きのまま直進し、カラオケ屋さんの前の大きな横断歩道（明治通り）を左に渡るとすぐ右前、地下1階にございます。 渋谷駅から311m,11:00 - 16:00L.O. 15:00,■ 定休日荒天時。12/31～1/2お正月休み（12/30はランチタイムのみの営業です。）,カード可 （VISA、Master、JCB、AMEX、Diners） 電子マネー可 （交通系電子マネー（Suicaなど）） QRコード決済不可,"35.6572036387116,139.70464208418502",050-3134-5712,東京都渋谷区渋谷3-9-10 ＫＤＣビル B1F,1514,unagi,False,35.6572036387116,139.70464208418502,unagi
,天ぷらめし 金子半之助  日本橋店,三越前駅 165m , 天ぷら、あなご、食堂,,"￥1,000～￥1,999","￥1,000～￥1,999",3.59,-,https://tabelog.com/tokyo/A1302/A130202/13166596/,予約不可,,三越前駅よりＡ1出口より　徒歩3分 三越前駅から165m,,,カード不可 電子マネー不可 QRコード決済可 （PayPay）,"35.686321438715765,139.77576778442932",03-6262-3734,東京都中央区日本橋本町1-4-3 ヴィラアート日本橋 1F,1465,unagi,False,35.686321438715765,139.77576778442932,unagi
,香川一福 恵比寿店,恵比寿駅 197m , うどん、天ぷら、カレーうどん,,～￥999,～￥999,3.59,-,https://tabelog.com/tokyo/A1303/A130302/13249181/,予約不可,,恵比寿駅西口より徒歩１分 恵比寿駅から197m,11:00 - 22:00,※麺が無くなり次第終了年中無休■ 定休日なし,カード不可 電子マネー不可 QRコード決済不可,"35.64826583871861,139.7087743840919",03-6416-0626,東京都渋谷区恵比寿西1-2-7 幸ビル 1F,644,unagi,False,35.64826583871861,139.7087743840919,unagi
,とんかつ檍のカレー屋 いっぺこっぺ 新橋店,新橋駅 87m , カレー、とんかつ,,"￥1,000～￥1,999","￥1,000～￥1,999",3.59,-,https://tabelog.com/tokyo/A1301/A130103/13267744/,予約不可,,JR新橋駅より徒歩2分 新橋駅から87m,,,カード不可 電子マネー不可 QRコード決済不可,"35.66673103872234,139.75736258424433",03-6206-7300,東京都港区新橋2-16-1 ニュー新橋ビル 1F,643,unagi,False,35.66673103872234,139.75736258424433,unagi
,おにやんま 日暮里店,日暮里駅 133m , うどん,,～￥999,～￥999,3.59,-,https://tabelog.com/tokyo/A1311/A131105/13231005/,予約不可,,JR各線　京成電鉄本線　日暮里駅下車　すぐ 日暮里駅から133m,,,カード可 （VISA、Master、JCB、AMEX、Diners） 電子マネー可 （交通系電子マネー（Suicaなど）、楽天Edy、nanaco、WAON、iD） QRコード決済可 （PayPay、d払い、楽天ペイ、au PAY）,"35.7287678386875,139.7716879848609",不明の為情報お待ちしております,東京都荒川区西日暮里2-18-5 川島ビル 1F,509,unagi,False,35.7287678386875,139.7716879848609,unagi
,活魚料理ととや,新橋駅 130m , 海鮮、日本料理,,"￥10,000～￥14,999","￥10,000～￥14,999",3.59,土曜日、日曜日、祝日,https://tabelog.com/tokyo/A1301/A130103/13014944/,予約可,,JR・地下鉄・ゆりかもめ新橋駅徒歩1分 新橋駅から130m,,,カード可 （VISA、Master、JCB、AMEX、Diners） 電子マネー不可 QRコード決済不可,"35.66664703872312,139.75964108424188",03-3571-0118,東京都港区新橋2-19-6 新和ビル　４Ｆ,498,unagi,False,35.66664703872312,139.75964108424188,unagi
,とゝや,築地駅 375m , 丼,,-,-,3.59,日曜日、祝日,https://tabelog.com/tokyo/A1313/A131301/13002330/,予約不可,,東京メトロ日比谷線築地駅より徒歩7分都営地下鉄大江戸線築地市場駅より徒歩9分 築地駅から375m,,,カード不可 電子マネー不可,"35.66472063872833,139.77215908421363",03-3541-8294,東京都中央区築地6-21-1 ,495,unagi,False,35.66472063872833,139.77215908421363,unagi
,野崎酒店,新橋駅 191m , 日本酒バー、居酒屋、海鮮,,"￥4,000～￥4,999","￥4,000～￥4,999",3.59,日曜日,https://tabelog.com/tokyo/A1301/A130103/13057347/,予約可,,ＪＲ山手線・京浜東北線【新橋駅】烏森口　徒歩２分都営地下鉄浅草線【新橋駅】徒歩３分東京メトロ銀座線【新橋駅】徒歩５分 新橋駅から191m,,,カード可 （VISA、Master、JCB、AMEX、Diners） 電子マネー不可 QRコード決済不可,"35.66482563872357,139.75743048422504",03-6430-3329,東京都港区新橋3-19-4 新共ビル一号館 1F,460,unagi,False,35.66482563872357,139.75743048422504,unagi
,一㐂,銀座駅 110m , 寿司、海鮮、日本料理,【11/26ご予約可能】一㐂限定クリスマスコースのご予約を開始いたしました。,"￥15,000～￥19,999","￥15,000～￥19,999",3.59,,https://tabelog.com/tokyo/A1301/A130101/13258242/,予約可,当日のキャンセルは既にご予約分の食材仕入れを行っている為、コース料金の100％をキャンセル料として頂戴いたします。※万が一ご予約が重複した場合、電話でのご予約を優先させて頂きます。※ご確認がとれない場合、トラブル防止の為キャンセル扱いとさせて頂くことがございます。,銀座駅徒歩1分 銀座駅から110m,12:00 - 14:30,■ 営業時間【ランチ】（13：30最終入店）【ディナー】17:00～21：00最終入店,カード可 （VISA、Master、JCB、AMEX、Diners） 電子マネー不可 QRコード決済不可,"35.67161013872104,139.76298938428965",03-6264-5390,東京都中央区銀座5-4-15 西五ビル 4F,457,unagi,False,35.67161013872104,139.76298938428965,unagi
,枝魯枝魯 神楽坂,牛込神楽坂駅 352m , 日本料理、創作料理,風情溢れる古民家レストランで 四季折々の魅力と独自の創造力を融合させた料理を演出,"￥6,000～￥7,999","￥6,000～￥7,999",3.59,,https://tabelog.com/tokyo/A1309/A130905/13162293/,予約可,予約当日の１７：００以降のキャンセルはお料理代分を100％キャンセル料として頂きます。遅れる場合はご一報ください。予約時間を20分過ぎてご連絡がない場合はキャンセル扱いとさせて頂きます。,神楽坂徒歩10分飯田橋駅徒歩10分 牛込神楽坂駅から352m,18:00 - 23:00L.O. ドリンク22:30,■ 営業時間最終入店21:00■ 定休日不定休,カード可 （VISA、Master、JCB、AMEX、Diners） 電子マネー不可 QRコード決済可 （PayPay）,"35.70174153869409,139.73848818461119",03-3269-8010,東京都新宿区神楽坂5-30 ,339,unagi,False,35.70174153869409,139.73848818461119,unagi
,瀧口,泉岳寺駅 100m , 焼き鳥、鳥料理、日本料理,至高の鶏懐石と厳選された希少なブルゴーニュワインによる究極のマリアージュが愉しめるお店,"￥10,000～￥14,999","￥10,000～￥14,999",3.59,,https://tabelog.com/tokyo/A1314/A131403/13171563/,予約可,●当店は鶏懐石とワインをお楽しみいただくことをコンセプトにしております。●ワイン以外のお飲み物も各種取り揃えております。●アレルギー等、召し上がれない品がある場合は御予約の際にご相談ください。●ご予約のご連絡の際、当店ピークタイム19：00～21：00のお時間を外して頂けると幸いで御座います。,JR・京浜急行 品川駅　高輪口　徒歩10分都営浅草線　泉岳寺駅　A2出口、右折徒歩30秒JR　高輪ゲートウェイ駅　徒歩5分 泉岳寺駅から100m,,,カード可 （VISA、Master、JCB、AMEX、Diners） 電子マネー不可 QRコード決済不可,"35.637792738734866,139.73897608396493",03-6684-3840,東京都港区高輪2-16-35 1F,334,unagi,False,35.637792738734866,139.73897608396493,unagi
,うどん家 八重桜,有楽町駅 135m , うどん、天ぷら、居酒屋,,"￥1,000～￥1,999","￥1,000～￥1,999",3.59,月曜日,https://tabelog.com/tokyo/A1301/A130102/13260419/,予約不可,,JR有楽町駅前より徒歩1分 有楽町駅から135m,11:30 - 18:00L.O. 17:30,※ 定休日月曜日(祝日の場合火曜日)第2、月曜日、火曜日連休頂いてます、第2月曜日、祝日の場合は、第3、月曜日、火曜日に変更で連休頂いてます。※支払い方法◼︎現金とPayPayのみ使用可能◼︎アメックス含むクレジットカードは使用できません。◼︎詳細は店舗に確認してください。,カード不可 電子マネー不可 QRコード決済可 （PayPay）,"35.67524793871929,139.7647332843252",03-3240-6088,東京都千代田区有楽町2-10-1 東京交通会館 B1F,334,unagi,False,35.67524793871929,139.7647332843252,unagi
,おぐ羅,銀座駅 263m , おでん、日本料理、居酒屋,銀座で30年、老舗が作るのこだわりのおでんです。,"￥6,000～￥7,999","￥6,000～￥7,999",3.59,日曜日、祝日,https://tabelog.com/tokyo/A1301/A130101/13002703/,予約可,,東京メトロ銀座線銀座駅C2出口より徒歩5分 山手線有楽町駅銀座口より徒歩8分 銀座駅から263m,,,カード可 （VISA、Master、JCB、AMEX、Diners） QRコード決済可 （d払い）,"35.67161975667373,139.76126378887983",03-3574-8156,東京都中央区銀座6-3-6 本多ビル　Ｂ１Ｆ,332,unagi,False,35.67161975667373,139.76126378887983,unagi
,游玄亭 銀座並木通り店,銀座駅 77m , 焼肉、日本料理、韓国料理,,"￥20,000～￥29,999","￥20,000～￥29,999",3.59,-,https://tabelog.com/tokyo/A1301/A130101/13030773/,予約可,,JR有楽町駅銀座口より徒歩5分地下鉄丸ノ内線・日比谷線銀座駅B5出口より徒歩1分 銀座駅から77m,11:30 - 21:30,■ 営業時間【ランチタイム】11:30～15:00.ネット予約はホームページよりお受け付けしております。■ 定休日不定休,カード可 （VISA、Master、JCB、AMEX、Diners） 電子マネー不可 QRコード決済可,"35.67171573872107,139.76333098429052",03-3573-8989,東京都中央区銀座5-4-6 ロイヤルクリスタル銀座　６Ｆ,315,unagi,False,35.67171573872107,139.76333098429052,unagi
,讃岐饂飩 恩家,学芸大学駅 138m , うどん,,-,-,3.59,-,https://tabelog.com/tokyo/A1317/A131702/13008395/,予約不可,,東急東横線学芸大学駅より徒歩3分。 学芸大学駅から138m,,,カード不可 電子マネー不可 QRコード決済不可,"35.629730238723276,139.68648078392025",不明の為情報お待ちしております,東京都目黒区鷹番2-20-19 ,308,unagi,False,35.629730238723276,139.68648078392025,unagi
,焼肉鳥ｇｇ,恵比寿駅 206m , 居酒屋、焼き鳥、焼肉,,"￥4,000～￥4,999","￥4,000～￥4,999",3.59,-,https://tabelog.com/tokyo/A1303/A130302/13195809/,予約可,電話可能な時間帯は13:00~23:00頃までです。※営業時間帯(17:00~22:00頃)は電話が繋がりにくくなる場合があります。※人数や時間の変更は前もってご連絡下さい。※ご予約は店舗にお電話下さい、SNS等からのご予約は対応しておりません。,ＪＲ山手線・埼京線【恵比寿駅】西口　徒歩３分東京メトロ日比谷線【恵比寿駅】徒歩１分 恵比寿駅から206m,17:00 - 23:00L.O. 22:00,■ 定休日不定休(正月、GW、お盆は連休いただきます)2024年8/11〜8/15まで夏季休暇をいただきます。,カード可 （VISA、Master、JCB、AMEX、Diners） 電子マネー不可 QRコード決済可 （PayPay）,"35.64608863871973,139.70799058407044",03-6712-2865,東京都渋谷区恵比寿南1-2-10 ヱビスユニオンビル 1F,279,unagi,False,35.64608863871973,139.70799058407044,unagi
,うどんや 大門,中野駅 349m , うどん,,-,-,3.59,-,https://tabelog.com/tokyo/A1319/A131902/13215526/,予約不可,,JR/東京メトロ東西線「中野駅」北口から徒歩6分 中野駅から349m,,,カード不可 電子マネー不可 QRコード決済不可,"35.708929538666375,139.66577668473477",不明の為情報お待ちしております,東京都中野区中野5-52-15 中野ブロードウェイ B1F,268,unagi,False,35.708929538666375,139.66577668473477,unagi
食べログ ステーキ・鉄板焼き EAST 百名店 2024 選出店,鉄板焼 花,代官山駅 214m , 鉄板焼き、ステーキ、海鮮,～匠の技、心躍る鉄板体験を～おもてなしの心を込めて演出するひと時―。,"￥8,000～￥9,999","￥8,000～￥9,999",3.59,,https://tabelog.com/tokyo/A1303/A130303/13192732/,予約可,10歳未満のお子様同伴はお断りさせて頂いております。,ＪＲ 恵比寿駅 徒歩8分地下鉄日比谷線 恵比寿駅 徒歩8分東急東横線 代官山駅 徒歩2分 代官山駅から214m,17:30 - 22:30L.O. 料理21:00 ドリンク22:00,■ 定休日年末年始,カード可 （VISA、Master、JCB、AMEX） 電子マネー不可 QRコード決済不可,"35.6500629387161,139.70448478411302",03-6873-5412,東京都渋谷区代官山町13-6 ８８.DAIKANYAMA 2F,267,unagi,False,35.6500629387161,139.70448478411302,unagi
